[{"id":5,"iata":"AAE","name":"Rabah Bitat Airport","country":"Algeria","latitude":36.82406,"longitude":7.8215694},{"id":13,"iata":"AAM","name":"Mala Mala Airport","country":"South Africa","latitude":-24.815424,"longitude":31.543955},{"id":34,"iata":"ABJ","name":"Port Bouet Airport","country":"Ivory Coast","latitude":5.2544694,"longitude":-3.9296293},{"id":35,"iata":"ABK","name":"Kabri Dar Airport","country":"Ethiopia","latitude":6.733082,"longitude":44.242275},{"id":43,"iata":"ABS","name":"Abu Simbel Airport","country":"Egypt","latitude":22.367252,"longitude":31.610336},{"id":46,"iata":"ABV","name":"Nnamdi Azikiwe International Airport","country":"Nigeria","latitude":9.004025,"longitude":7.2690525},{"id":53,"iata":"ACC","name":"Kotoka International Airport","country":"Ghana","latitude":5.6060953,"longitude":-0.1681235},{"id":75,"iata":"ADD","name":"Bole International Airport","country":"Ethiopia","latitude":8.980069,"longitude":38.79893},{"id":102,"iata":"AEH","name":"Abéché Airport","country":"Chad","latitude":13.844667,"longitude":20.849396},{"id":128,"iata":"AGA","name":"Agadir–Al Massira Airport","country":"Morocco","latitude":30.327028,"longitude":-9.4128895},{"id":165,"iata":"AHU","name":"Cherif Al Idrissi Airport","country":"Morocco","latitude":0,"longitude":0},{"id":196,"iata":"AJN","name":"Ouani Airport","country":"Comoros","latitude":-12.133332,"longitude":44.429672},{"id":206,"iata":"AKF","name":"Kufra Airport","country":"Libya","latitude":24.176666,"longitude":23.313334},{"id":232,"iata":"ALG","name":"Houari Boumediene Airport","country":"Algeria","latitude":36.697525,"longitude":3.2067833},{"id":249,"iata":"ALY","name":"El Nouzha Airport","country":"Egypt","latitude":31.192316,"longitude":29.953056},{"id":258,"iata":"AMH","name":"Arba Minch Airport","country":"Ethiopia","latitude":6.0404453,"longitude":37.58893},{"id":274,"iata":"AMY","name":"Ambatomainty Airport","country":"Madagascar","latitude":0,"longitude":0},{"id":286,"iata":"ANM","name":"Antsirabato Airport","country":"Madagascar","latitude":-14.998869,"longitude":50.320316},{"id":326,"iata":"APL","name":"Nampula Airport","country":"Mozambique","latitude":-15.1075325,"longitude":39.28382},{"id":359,"iata":"ARK","name":"Arusha Airport","country":"Tanzania","latitude":-3.3672488,"longitude":36.624912},{"id":374,"iata":"ASA","name":"Assab International Airport","country":"Eritrea","latitude":13.071139,"longitude":42.645916},{"id":386,"iata":"ASM","name":"Asmara International Airport","country":"Eritrea","latitude":15.285,"longitude":38.90167},{"id":388,"iata":"ASO","name":"Asosa Airport","country":"Ethiopia","latitude":10.023081,"longitude":34.57845},{"id":394,"iata":"ASV","name":"Amboseli Airport","country":"Kenya","latitude":-2.6456487,"longitude":37.24872},{"id":395,"iata":"ASW","name":"Aswan International Airport","country":"Egypt","latitude":23.966442,"longitude":32.824474},{"id":400,"iata":"ATB","name":"Atbara Airport","country":"Sudan","latitude":17.708649,"longitude":34.057182},{"id":416,"iata":"ATR","name":"Atar International Airport","country":"Mauritania","latitude":20.499443,"longitude":-13.046389},{"id":424,"iata":"ATZ","name":"Assiut Airport","country":"Egypt","latitude":27.050007,"longitude":31.015408},{"id":489,"iata":"AXU","name":"Axum Airport","country":"Ethiopia","latitude":14.144398,"longitude":38.774773},{"id":519,"iata":"AZR","name":"Touat-Cheikh Sidi Mohamed Belkebir Airport","country":"Algeria","latitude":27.841246,"longitude":-0.1880881},{"id":555,"iata":"BBK","name":"Kasane Airport","country":"Botswana","latitude":-17.8306,"longitude":25.16372},{"id":559,"iata":"BBO","name":"Berbera Airport","country":"Somalia","latitude":10.391332,"longitude":44.94358},{"id":635,"iata":"BEN","name":"Benina International Airport","country":"Libya","latitude":0,"longitude":0},{"id":644,"iata":"BEW","name":"Beira Airport","country":"Mozambique","latitude":-19.796824,"longitude":34.9088},{"id":660,"iata":"BFN","name":"Bloemfontein Airport","country":"South Africa","latitude":-29.092735,"longitude":26.298767},{"id":676,"iata":"BGF","name":"Bangui M'Poko International Airport","country":"Central African Republic","latitude":4.396111,"longitude":18.520279},{"id":746,"iata":"BJA","name":"Soummam – Abane Ramdane Airport","country":"Algeria","latitude":36.715378,"longitude":5.0712886},{"id":757,"iata":"BJL","name":"Banjul International Airport","country":"Gambia","latitude":13.34406,"longitude":-16.6522},{"id":758,"iata":"BJM","name":"Bujumbura International Airport","country":"Burundi","latitude":-3.3191886,"longitude":29.320621},{"id":763,"iata":"BJR","name":"Bahir Dar Airport","country":"Ethiopia","latitude":11.602981,"longitude":37.32352},{"id":786,"iata":"BKO","name":"Bamako–Sénou International Airport","country":"Mali","latitude":12.540926,"longitude":-7.947951},{"id":795,"iata":"BKY","name":"Kavumu Airport","country":"Democratic Republic of the Congo","latitude":-2.3076873,"longitude":28.807968},{"id":806,"iata":"BLJ","name":"Mostépha Ben Boulaid Airport","country":"Algeria","latitude":35.757286,"longitude":6.309525},{"id":821,"iata":"BLZ","name":"Chileka International Airport","country":"Malawi","latitude":-15.681326,"longitude":34.971706},{"id":844,"iata":"BMW","name":"Bordj Mokhtar Airport","country":"Algeria","latitude":21.37157,"longitude":0.923961},{"id":855,"iata":"BNI","name":"Benin Airport","country":"Nigeria","latitude":6.3171797,"longitude":5.6036534},{"id":894,"iata":"BOY","name":"Bobo Dioulasso Airport","country":"Burkina Faso","latitude":11.160496,"longitude":-4.329764},{"id":911,"iata":"BPY","name":"Besalampy Airport","country":"Madagascar","latitude":-16.74557,"longitude":44.480732},{"id":952,"iata":"BSA","name":"Bender Qassim International Airport","country":"Somalia","latitude":11.278952,"longitude":49.150208},{"id":958,"iata":"BSG","name":"Bata Airport","country":"Equatorial Guinea","latitude":1.9001143,"longitude":9.80273},{"id":961,"iata":"BSK","name":"Biskra Airport","country":"Algeria","latitude":34.79194,"longitude":5.7335796},{"id":1015,"iata":"BUO","name":"Burao Airport","country":"Somalia","latitude":9.532122,"longitude":45.558342},{"id":1017,"iata":"BUQ","name":"Joshua Mqabuko Nkomo International Airport","country":"Zimbabwe","latitude":-20.018333,"longitude":28.624722},{"id":1024,"iata":"BUX","name":"Bunia Airport","country":"Democratic Republic of the Congo","latitude":1.5676957,"longitude":30.220587},{"id":1029,"iata":"BVC","name":"Aristides Pereira International Airport","country":"Cape Verde","latitude":16.135412,"longitude":-22.892334},{"id":1133,"iata":"BZV","name":"Maya-Maya Airport","country":"Republic of the Congo","latitude":-4.258899,"longitude":15.251139},{"id":1137,"iata":"CAB","name":"Cabinda Airport","country":"Angola","latitude":-5.596699,"longitude":12.188059},{"id":1144,"iata":"CAI","name":"Cairo International Airport","country":"Egypt","latitude":30.112364,"longitude":31.40029},{"id":1168,"iata":"CBH","name":"Boudghene Ben Ali Lotfi Airport","country":"Algeria","latitude":31.645279,"longitude":-2.278066},{"id":1177,"iata":"CBQ","name":"Margaret Ekpo International Airport","country":"Nigeria","latitude":4.969008,"longitude":8.346987},{"id":1180,"iata":"CBT","name":"Catumbela Airport","country":"Angola","latitude":-12.493838,"longitude":13.490208},{"id":1262,"iata":"CFK","name":"Chlef International Airport","country":"Algeria","latitude":36.217445,"longitude":1.3247069},{"id":1331,"iata":"CIP","name":"Chipata Airport","country":"Zambia","latitude":-13.556944,"longitude":32.587223},{"id":1373,"iata":"CKY","name":"Conakry International Airport","country":"Guinea","latitude":9.575655,"longitude":-13.62017},{"id":1411,"iata":"CMN","name":"Mohammed V International Airport","country":"Morocco","latitude":33.371754,"longitude":-7.587027},{"id":1464,"iata":"COO","name":"Cadjehoun Airport","country":"Benin","latitude":6.354854,"longitude":2.3827198},{"id":1489,"iata":"CPT","name":"Cape Town International Airport","country":"South Africa","latitude":-33.971462,"longitude":18.602085},{"id":1534,"iata":"CSK","name":"Cap Skirring Airport","country":"Senegal","latitude":12.388051,"longitude":-16.741894},{"id":1664,"iata":"CZL","name":"Mohamed Boudiaf International Airport","country":"Algeria","latitude":36.28347,"longitude":6.622142},{"id":1688,"iata":"DAR","name":"Julius Nyerere International Airport","country":"Tanzania","latitude":-6.872539,"longitude":39.206917},{"id":1772,"iata":"DIE","name":"Arrachart Airport","country":"Madagascar","latitude":-12.351111,"longitude":49.294167},{"id":1781,"iata":"DIR","name":"Aba Tenna Dejazmach Yilma International Airport","country":"Ethiopia","latitude":9.622856,"longitude":41.854164},{"id":1782,"iata":"DIS","name":"Dolisie Airport","country":"Republic of the Congo","latitude":-4.2066555,"longitude":12.660199},{"id":1789,"iata":"DJE","name":"Djerba–Zarzis International Airport","country":"Tunisia","latitude":33.87059,"longitude":10.775073},{"id":1790,"iata":"DJG","name":"Tiska Djanet Airport","country":"Algeria","latitude":24.286697,"longitude":9.460322},{"id":1800,"iata":"DKR","name":"Léopold Sédar Senghor International Airport","country":"Senegal","latitude":14.744207,"longitude":-17.491457},{"id":1803,"iata":"DLA","name":"Douala International Airport","country":"Cameroon","latitude":4.0134387,"longitude":9.717008},{"id":1856,"iata":"DOG","name":"Dongola Airport","country":"Sudan","latitude":19.1525,"longitude":30.43},{"id":1931,"iata":"DUE","name":"Dundo Airport","country":"Angola","latitude":-7.400486,"longitude":20.81863},{"id":1938,"iata":"DUR","name":"King Shaka International Airport","country":"South Africa","latitude":-29.609978,"longitude":31.116888},{"id":1950,"iata":"DWB","name":"Soalala Airport","country":"Madagascar","latitude":-16.102318,"longitude":45.361023},{"id":1968,"iata":"DZA","name":"Dzaoudzi–Pamandzi International Airport","country":"Mayotte","latitude":-12.803014,"longitude":45.282944},{"id":1985,"iata":"EBB","name":"Entebbe International Airport","country":"Uganda","latitude":0.0435913,"longitude":32.441795},{"id":1986,"iata":"EBD","name":"El Obeid Airport","country":"Sudan","latitude":13.159722,"longitude":30.234167},{"id":2013,"iata":"EDL","name":"Eldoret International Airport","country":"Kenya","latitude":0.404862,"longitude":35.22388},{"id":2033,"iata":"EGN","name":"Geneina Airport","country":"Sudan","latitude":13.483364,"longitude":22.466896},{"id":2069,"iata":"ELF","name":"El Fasher Airport","country":"Sudan","latitude":13.622016,"longitude":25.329483},{"id":2070,"iata":"ELG","name":"El Golea Airport","country":"Algeria","latitude":30.571545,"longitude":2.8688734},{"id":2082,"iata":"ELS","name":"East London Airport","country":"South Africa","latitude":-33.03649,"longitude":27.824621},{"id":2084,"iata":"ELU","name":"Guemar Airport","country":"Algeria","latitude":33.511227,"longitude":6.7846503},{"id":2120,"iata":"ENU","name":"Akanu Ibiam International Airport","country":"Nigeria","latitude":6.472048,"longitude":7.56772},{"id":2147,"iata":"ERH","name":"Moulay Ali Cherif Airport","country":"Morocco","latitude":0,"longitude":0},{"id":2154,"iata":"ERS","name":"Eros Airport","country":"Namibia","latitude":-22.607222,"longitude":17.07889},{"id":2177,"iata":"ESU","name":"Essaouira-Mogador Airport","country":"Morocco","latitude":31.403046,"longitude":-9.688184},{"id":2194,"iata":"EUN","name":"Hassan I Airport","country":"Morocco","latitude":27.147701,"longitude":-13.222516},{"id":2253,"iata":"FBM","name":"Lubumbashi International Airport","country":"Democratic Republic of the Congo","latitude":-11.591111,"longitude":27.530832},{"id":2282,"iata":"FEZ","name":"Fes–Saïss Airport","country":"Morocco","latitude":33.928825,"longitude":-4.979357},{"id":2298,"iata":"FIH","name":"N'djili Airport","country":"Democratic Republic of the Congo","latitude":-4.404734,"longitude":15.377524},{"id":2305,"iata":"FKI","name":"Bangoka International Airport","country":"Democratic Republic of the Congo","latitude":0.486974,"longitude":25.332651},{"id":2341,"iata":"FNA","name":"Lungi International Airport","country":"Sierra Leone","latitude":8.615413,"longitude":-13.200598},{"id":2389,"iata":"FRW","name":"Francistown Airport","country":"Botswana","latitude":-21.160557,"longitude":27.481943},{"id":2407,"iata":"FTU","name":"Tôlanaro Airport","country":"Madagascar","latitude":-25.038055,"longitude":46.955833},{"id":2441,"iata":"GAE","name":"Gabès – Matmata International Airport","country":"Tunisia","latitude":33.73659,"longitude":9.914469},{"id":2442,"iata":"GAF","name":"Gafsa – Ksar International Airport","country":"Tunisia","latitude":34.42745,"longitude":8.819828},{"id":2459,"iata":"GAX","name":"Gamba Airport","country":"Gabon","latitude":-2.7856205,"longitude":10.047105},{"id":2466,"iata":"GBE","name":"Sir Seretse Khama International Airport","country":"Botswana","latitude":-24.555834,"longitude":25.918888},{"id":2495,"iata":"GDE","name":"Gode Airport","country":"Ethiopia","latitude":5.9344463,"longitude":43.576313},{"id":2505,"iata":"GDQ","name":"Gondar Airport","country":"Ethiopia","latitude":12.520501,"longitude":37.43384},{"id":2549,"iata":"GHA","name":"Noumérat – Moufdi Zakaria Airport","country":"Algeria","latitude":32.37849,"longitude":3.8015246},{"id":2557,"iata":"GHT","name":"Ghat Airport","country":"Libya","latitude":25.142302,"longitude":10.142317},{"id":2574,"iata":"GJL","name":"Jijel Ferhat Abbas Airport","country":"Algeria","latitude":36.793392,"longitude":5.877775},{"id":2596,"iata":"GLK","name":"Abdullahi Yusuf International Airport","country":"Somalia","latitude":6.7808943,"longitude":47.45425},{"id":2599,"iata":"GLN","name":"Guelmim Airport","country":"Morocco","latitude":29.016846,"longitude":-10.051294},{"id":2611,"iata":"GMA","name":"Gemena Airport","country":"Democratic Republic of the Congo","latitude":3.235556,"longitude":19.77014},{"id":2612,"iata":"GMB","name":"Gambela Airport","country":"Ethiopia","latitude":8.13249,"longitude":34.5653},{"id":2653,"iata":"GOM","name":"Goma International Airport","country":"Democratic Republic of the Congo","latitude":-1.6630867,"longitude":29.237677},{"id":2661,"iata":"GOU","name":"Garoua International Airport","country":"Cameroon","latitude":9.336111,"longitude":13.375556},{"id":2684,"iata":"GRJ","name":"George Airport","country":"South Africa","latitude":-34.004364,"longitude":22.380974},{"id":2775,"iata":"GXG","name":"Negage Airport","country":"Angola","latitude":-7.7544446,"longitude":15.2875},{"id":2804,"iata":"HAH","name":"Prince Said Ibrahim International Airport","country":"Comoros","latitude":-11.535928,"longitude":43.274208},{"id":2823,"iata":"HBE","name":"Borg El Arab Airport","country":"Egypt","latitude":30.93241,"longitude":29.696465},{"id":2848,"iata":"HDS","name":"Air Force Base Hoedspruit","country":"South Africa","latitude":-24.36994,"longitude":31.044977},{"id":2871,"iata":"HGA","name":"Hargeisa International Airport","country":"Somalia","latitude":0,"longitude":0},{"id":2898,"iata":"HIL","name":"Shilavo Airport","country":"Ethiopia","latitude":6.0832505,"longitude":44.763927},{"id":2919,"iata":"HLA","name":"Lanseria International Airport","country":"South Africa","latitude":-25.937752,"longitude":27.926416},{"id":2940,"iata":"HME","name":"Oued Irara–Krim Belkacem Airport","country":"Algeria","latitude":31.67389,"longitude":6.140556},{"id":2995,"iata":"HRE","name":"Harare International Airport","country":"Zimbabwe","latitude":-17.918783,"longitude":31.097279},{"id":2996,"iata":"HRG","name":"Hurghada International Airport","country":"Egypt","latitude":27.180494,"longitude":33.807568},{"id":3062,"iata":"HVA","name":"Analalava Airport","country":"Madagascar","latitude":0,"longitude":0},{"id":3101,"iata":"IAM","name":"In Amenas Airport","country":"Algeria","latitude":28.052462,"longitude":9.637988},{"id":3108,"iata":"IBA","name":"Ibadan Airport","country":"Nigeria","latitude":7.3584175,"longitude":3.9750884},{"id":3201,"iata":"ILR","name":"Ilorin International Airport","country":"Nigeria","latitude":8.435384,"longitude":4.4949965},{"id":3225,"iata":"INH","name":"Inhambane Airport","country":"Mozambique","latitude":-23.876308,"longitude":35.408237},{"id":3241,"iata":"INZ","name":"In Salah Airport","country":"Algeria","latitude":27.251959,"longitude":2.5086925},{"id":3245,"iata":"ION","name":"Impfondo Airport","country":"Republic of the Congo","latitude":1.5921782,"longitude":18.050604},{"id":3421,"iata":"JIB","name":"Djibouti–Ambouli International Airport","country":"Djibouti","latitude":11.547222,"longitude":43.15917},{"id":3423,"iata":"JIJ","name":"Wilwal International Airport","country":"Ethiopia","latitude":0,"longitude":0},{"id":3426,"iata":"JIM","name":"Aba Segud Airport","country":"Ethiopia","latitude":7.665595,"longitude":36.820183},{"id":3455,"iata":"JNB","name":"O. R. Tambo International Airport","country":"South Africa","latitude":-26.136673,"longitude":28.241146},{"id":3480,"iata":"JRO","name":"Kilimanjaro International Airport","country":"Tanzania","latitude":-3.4245248,"longitude":37.06508},{"id":3496,"iata":"JUB","name":"Juba International Airport","country":"South Sudan","latitude":4.8675194,"longitude":31.602684},{"id":3508,"iata":"JVA","name":"Ankavandra Airport","country":"Madagascar","latitude":0,"longitude":0},{"id":3520,"iata":"KAB","name":"Kariba Airport","country":"Zimbabwe","latitude":-16.51945,"longitude":28.885027},{"id":3522,"iata":"KAD","name":"Kaduna Airport","country":"Nigeria","latitude":10.694085,"longitude":7.3230953},{"id":3531,"iata":"KAN","name":"Mallam Aminu Kano International Airport","country":"Nigeria","latitude":12.04565,"longitude":8.522076},{"id":3639,"iata":"KFA","name":"Kiffa Airport","country":"Mauritania","latitude":16.589518,"longitude":-11.40563},{"id":3644,"iata":"KGA","name":"Kananga Airport","country":"Democratic Republic of the Congo","latitude":-5.901227,"longitude":22.475338},{"id":3701,"iata":"KIM","name":"Kimberley Airport","country":"South Africa","latitude":-28.801495,"longitude":24.76652},{"id":3707,"iata":"KIS","name":"Kisumu International Airport","country":"Kenya","latitude":-0.0882942,"longitude":34.725746},{"id":3785,"iata":"KMS","name":"Kumasi Airport","country":"Ghana","latitude":6.7144394,"longitude":-1.5925808},{"id":3795,"iata":"KND","name":"Kindu Airport","country":"Democratic Republic of the Congo","latitude":-2.926224,"longitude":25.915016},{"id":3835,"iata":"KOU","name":"Koulamoutou Airport","country":"Gabon","latitude":-1.18459,"longitude":12.441093},{"id":3882,"iata":"KRT","name":"Khartoum International Airport","country":"Sudan","latitude":15.592767,"longitude":32.552235},{"id":3900,"iata":"KSL","name":"Kassala Airport","country":"Sudan","latitude":15.386861,"longitude":36.3306},{"id":3993,"iata":"KWZ","name":"Kolwezi Airport","country":"Democratic Republic of the Congo","latitude":-10.766667,"longitude":25.506945},{"id":4009,"iata":"KYS","name":"Kayes Airport","country":"Mali","latitude":14.480439,"longitude":-11.39826},{"id":4027,"iata":"LAD","name":"Quatro de Fevereiro Airport","country":"Angola","latitude":-8.847951,"longitude":13.234862},{"id":4039,"iata":"LAQ","name":"Al Abraq International Airport","country":"Libya","latitude":32.78439,"longitude":21.950684},{"id":4042,"iata":"LAU","name":"Manda Airport","country":"Kenya","latitude":-2.252222,"longitude":40.913055},{"id":4068,"iata":"LBV","name":"Libreville International Airport","country":"Gabon","latitude":0.456963,"longitude":9.409852},{"id":4150,"iata":"LFW","name":"Lomé–Tokoin Airport","country":"Togo","latitude":6.1705465,"longitude":1.2530653},{"id":4218,"iata":"LKG","name":"Lokichogio Airport","country":"Kenya","latitude":4.2033067,"longitude":34.35463},{"id":4238,"iata":"LLI","name":"Lalibela Airport","country":"Ethiopia","latitude":11.975203,"longitude":38.981155},{"id":4247,"iata":"LLW","name":"Lilongwe International Airport","country":"Malawi","latitude":-13.783333,"longitude":33.7775},{"id":4308,"iata":"LOS","name":"Murtala Muhammed International Airport","country":"Nigeria","latitude":6.5818186,"longitude":3.3211348},{"id":4405,"iata":"LUD","name":"Lüderitz Airport","country":"Namibia","latitude":-26.683489,"longitude":15.244038},{"id":4414,"iata":"LUN","name":"Kenneth Kaunda International Airport","country":"Zambia","latitude":-15.330904,"longitude":28.454346},{"id":4415,"iata":"LUO","name":"Luena Airport","country":"Angola","latitude":-11.767036,"longitude":19.894608},{"id":4429,"iata":"LVI","name":"Harry Mwanga Nkumbula International Airport","country":"Zambia","latitude":-17.825253,"longitude":25.819218},{"id":4456,"iata":"LXR","name":"Luxor International Airport","country":"Egypt","latitude":25.673883,"longitude":32.701492},{"id":4496,"iata":"MAK","name":"Malakal Airport","country":"South Sudan","latitude":9.558889,"longitude":31.652222},{"id":4512,"iata":"MBA","name":"Moi International Airport","country":"Kenya","latitude":-4.0355,"longitude":39.5973},{"id":4515,"iata":"MBD","name":"Mahikeng Airport","country":"South Africa","latitude":-25.803383,"longitude":25.539549},{"id":4571,"iata":"MDK","name":"Mbandaka Airport","country":"Democratic Republic of the Congo","latitude":0.022797,"longitude":18.291508},{"id":4592,"iata":"MEG","name":"Malanje Airport","country":"Angola","latitude":-9.525021,"longitude":16.31285},{"id":4631,"iata":"MFU","name":"Mfuwe Airport","country":"Zambia","latitude":-13.25605,"longitude":31.93342},{"id":4644,"iata":"MGH","name":"Margate Airport","country":"South Africa","latitude":-30.86014,"longitude":30.34388},{"id":4653,"iata":"MGQ","name":"Aden Adde International Airport","country":"Somalia","latitude":2.014812,"longitude":45.304913},{"id":4703,"iata":"MIR","name":"Monastir Habib Bourguiba International Airport","country":"Tunisia","latitude":35.758057,"longitude":10.754722},{"id":4712,"iata":"MJA","name":"Manja Airport","country":"Madagascar","latitude":-21.426426,"longitude":44.31715},{"id":4721,"iata":"MJL","name":"Mouila Airport","country":"Gabon","latitude":-1.8468255,"longitude":11.055709},{"id":4722,"iata":"MJM","name":"Mbuji Mayi Airport","country":"Democratic Republic of the Congo","latitude":-6.1249275,"longitude":23.571402},{"id":4723,"iata":"MJN","name":"Amborovy Airport","country":"Madagascar","latitude":-15.666389,"longitude":46.350834},{"id":4754,"iata":"MKU","name":"Makokou Airport","country":"Gabon","latitude":0.5796779,"longitude":12.891396},{"id":4781,"iata":"MLW","name":"Spriggs Payne Airport","country":"Liberia","latitude":6.289444,"longitude":-10.758333},{"id":4799,"iata":"MMO","name":"Maio Airport","country":"Cape Verde","latitude":15.156337,"longitude":-23.21339},{"id":4819,"iata":"MNJ","name":"Mananjary Airport","country":"Madagascar","latitude":-21.202877,"longitude":48.358143},{"id":4850,"iata":"MOQ","name":"Morondava Airport","country":"Madagascar","latitude":-20.287155,"longitude":44.316883},{"id":4860,"iata":"MPA","name":"Katima Mulilo Airport","country":"Namibia","latitude":-17.631256,"longitude":24.17812},{"id":4870,"iata":"MPM","name":"Maputo International Airport","country":"Mozambique","latitude":-25.92372,"longitude":32.574867},{"id":4898,"iata":"MQP","name":"Kruger Mpumalanga International Airport","country":"South Africa","latitude":-25.385393,"longitude":31.09851},{"id":4906,"iata":"MQX","name":"Alula Aba Nega Airport","country":"Ethiopia","latitude":13.473701,"longitude":39.530666},{"id":4909,"iata":"MRA","name":"Misrata Airport","country":"Libya","latitude":32.342896,"longitude":15.043077},{"id":4913,"iata":"MRE","name":"Mara Serena Airport","country":"Kenya","latitude":-1.405343,"longitude":35.00964},{"id":4929,"iata":"MRU","name":"Sir Seewoosagur Ramgoolam International Airport","country":"Mauritius","latitude":-20.433134,"longitude":57.678997},{"id":4953,"iata":"MSU","name":"Moshoeshoe I International Airport","country":"Lesotho","latitude":-29.455463,"longitude":27.55906},{"id":4955,"iata":"MSW","name":"Massawa International Airport","country":"Eritrea","latitude":15.67103,"longitude":39.3686},{"id":4958,"iata":"MSZ","name":"Moçâmedes Airport","country":"Angola","latitude":-15.257567,"longitude":12.150431},{"id":4977,"iata":"MTS","name":"Matsapha Airport","country":"Swaziland","latitude":-26.52033,"longitude":31.314133},{"id":4986,"iata":"MUB","name":"Maun Airport","country":"Botswana","latitude":-19.97558,"longitude":23.42818},{"id":4992,"iata":"MUH","name":"Marsa Matruh International Airport","country":"Egypt","latitude":31.33808,"longitude":27.216972},{"id":5007,"iata":"MUZ","name":"Musoma Airport","country":"Tanzania","latitude":-1.4971094,"longitude":33.800552},{"id":5009,"iata":"MVB","name":"M'Vengue El Hadj Omar Bongo Ondimba International Airport","country":"Gabon","latitude":-1.65,"longitude":13.433333},{"id":5024,"iata":"MVR","name":"Salak Airport","country":"Cameroon","latitude":10.453472,"longitude":14.255773},{"id":5055,"iata":"MWZ","name":"Mwanza Airport","country":"Tanzania","latitude":-2.441221,"longitude":32.923225},{"id":5068,"iata":"MXM","name":"Morombe Airport","country":"Madagascar","latitude":-21.752928,"longitude":43.37549},{"id":5074,"iata":"MXT","name":"Maintirano Airport","country":"Madagascar","latitude":-18.05,"longitude":44.033333},{"id":5084,"iata":"MYD","name":"Malindi Airport","country":"Kenya","latitude":-3.2258837,"longitude":40.10056},{"id":5102,"iata":"MYW","name":"Mtwara Airport","country":"Tanzania","latitude":-10.336111,"longitude":40.181946},{"id":5114,"iata":"MZI","name":"Mopti Airport","country":"Mali","latitude":14.511267,"longitude":-4.081045},{"id":5163,"iata":"NBO","name":"Jomo Kenyatta International Airport","country":"Kenya","latitude":-1.3227102,"longitude":36.92607},{"id":5182,"iata":"NDB","name":"Nouadhibou International Airport","country":"Mauritania","latitude":20.922628,"longitude":-17.033274},{"id":5189,"iata":"NDJ","name":"N'Djamena International Airport","country":"Chad","latitude":12.129376,"longitude":15.033964},{"id":5194,"iata":"NDR","name":"Nador International Airport","country":"Morocco","latitude":34.993984,"longitude":-3.023767},{"id":5217,"iata":"NGE","name":"Ngaoundéré Airport","country":"Cameroon","latitude":7.358532,"longitude":13.56328},{"id":5246,"iata":"NIM","name":"Diori Hamani International Airport","country":"Niger","latitude":13.476534,"longitude":2.177158},{"id":5261,"iata":"NKC","name":"Nouakchott–Oumtounsy International Airport","country":"Mauritania","latitude":18.298717,"longitude":-15.958082},{"id":5275,"iata":"NLA","name":"Simon Mwansa Kapwepwe International Airport","country":"Zambia","latitude":-12.996072,"longitude":28.657654},{"id":5329,"iata":"NOS","name":"Fascene Airport","country":"Madagascar","latitude":-13.311881,"longitude":48.314404},{"id":5332,"iata":"NOV","name":"Albano Machado Airport","country":"Angola","latitude":-12.803149,"longitude":15.749518},{"id":5370,"iata":"NSI","name":"Yaoundé Nsimalen International Airport","country":"Cameroon","latitude":3.7149162,"longitude":11.547693},{"id":5428,"iata":"NWA","name":"Mohéli Bandar Es Eslam Airport","country":"Comoros","latitude":-12.295599,"longitude":43.762436},{"id":5437,"iata":"NYK","name":"Nanyuki Airport","country":"Kenya","latitude":0.0260697,"longitude":37.02393},{"id":5510,"iata":"OFI","name":"Ouango Fitini Airport","country":"Ivory Coast","latitude":0,"longitude":0},{"id":5527,"iata":"OGX","name":"Ain Beida Airport","country":"Algeria","latitude":31.936056,"longitude":5.408551},{"id":5593,"iata":"OMB","name":"Omboué Hospital Airport","country":"Gabon","latitude":-1.5751076,"longitude":9.262722},{"id":5595,"iata":"OMD","name":"Oranjemund Airport","country":"Namibia","latitude":-28.58584,"longitude":16.445824},{"id":5611,"iata":"OND","name":"Ondangwa Airport","country":"Namibia","latitude":-17.882002,"longitude":15.94355},{"id":5657,"iata":"ORN","name":"Oran Es Sénia Airport","country":"Algeria","latitude":35.620247,"longitude":-0.606133},{"id":5710,"iata":"OUA","name":"Ouagadougou Airport","country":"Burkina Faso","latitude":12.356569,"longitude":-1.5135413},{"id":5711,"iata":"OUD","name":"Angads Airport","country":"Morocco","latitude":0,"longitude":0},{"id":5712,"iata":"OUE","name":"Ouésso Airport","country":"Republic of the Congo","latitude":1.6091038,"longitude":16.039772},{"id":5723,"iata":"OUZ","name":"Tazadit Airport","country":"Mauritania","latitude":0,"longitude":0},{"id":5737,"iata":"OXB","name":"Osvaldo Vieira International Airport","country":"Guinea-Bissau","latitude":11.888889,"longitude":-15.657222},{"id":5745,"iata":"OYE","name":"Oyem Airport","country":"Gabon","latitude":1.5379786,"longitude":11.578359},{"id":5746,"iata":"OYG","name":"Moyo Airport","country":"Uganda","latitude":0,"longitude":0},{"id":5758,"iata":"OZZ","name":"Ouarzazate Airport","country":"Morocco","latitude":30.935026,"longitude":-6.908139},{"id":5895,"iata":"PHC","name":"Port Harcourt International Airport","country":"Nigeria","latitude":5.0074987,"longitude":6.9502153},{"id":5899,"iata":"PHG","name":"Port Harcourt City Airport","country":"Nigeria","latitude":5.0074987,"longitude":6.9502153},{"id":5910,"iata":"PHW","name":"Hendrik Van Eck Airport","country":"South Africa","latitude":-23.935833,"longitude":31.155},{"id":5983,"iata":"PLZ","name":"Port Elizabeth Airport","country":"South Africa","latitude":-33.98727,"longitude":25.614294},{"id":5984,"iata":"PMA","name":"Pemba Airport","country":"Tanzania","latitude":-12.991692,"longitude":40.52434},{"id":6021,"iata":"PNR","name":"Pointe Noire Airport","country":"Republic of the Congo","latitude":-4.809799,"longitude":11.882377},{"id":6035,"iata":"POG","name":"Port-Gentil International Airport","country":"Gabon","latitude":-0.719964,"longitude":8.753584},{"id":6039,"iata":"POL","name":"Pemba Airport","country":"Mozambique","latitude":-12.991692,"longitude":40.52434},{"id":6090,"iata":"PRI","name":"Praslin Island Airport","country":"Seychelles","latitude":-4.3234606,"longitude":55.69215},{"id":6135,"iata":"PTG","name":"Polokwane International Airport","country":"South Africa","latitude":-23.859682,"longitude":29.453285},{"id":6227,"iata":"PZB","name":"Pietermaritzburg Airport","country":"South Africa","latitude":-29.642593,"longitude":30.396027},{"id":6234,"iata":"PZU","name":"Port Sudan New International Airport","country":"Sudan","latitude":19.434402,"longitude":37.23839},{"id":6263,"iata":"RAI","name":"Nelson Mandela International Airport","country":"Cape Verde","latitude":14.945274,"longitude":-23.48653},{"id":6265,"iata":"RAK","name":"Marrakesh Menara Airport","country":"Morocco","latitude":31.604788,"longitude":-8.02105},{"id":6279,"iata":"RBA","name":"Rabat–Salé Airport","country":"Morocco","latitude":34.036114,"longitude":-6.7480955},{"id":6303,"iata":"RCB","name":"Richards Bay Airport","country":"South Africa","latitude":-28.7376,"longitude":32.094234},{"id":6438,"iata":"RMF","name":"Marsa Alam International Airport","country":"Egypt","latitude":25.555052,"longitude":34.590797},{"id":6470,"iata":"ROB","name":"Roberts International Airport","country":"Liberia","latitude":6.241239,"longitude":-10.352785},{"id":6503,"iata":"RRG","name":"Sir Gaëtan Duval Airport","country":"Mauritius","latitude":-19.754173,"longitude":63.358334},{"id":6538,"iata":"RUA","name":"Arua Airport","country":"Uganda","latitude":3.0491753,"longitude":30.912327},{"id":6547,"iata":"RUN","name":"Roland Garros Airport","country":"France","latitude":-20.891878,"longitude":55.512165},{"id":6555,"iata":"RVA","name":"Farafangana Airport","country":"Madagascar","latitude":-22.805286,"longitude":47.820614},{"id":6663,"iata":"SDD","name":"Lubango Mukanka Airport","country":"Angola","latitude":-14.92829,"longitude":13.56812},{"id":6685,"iata":"SEB","name":"Sabha Airport","country":"Libya","latitude":26.993761,"longitude":14.46446},{"id":6701,"iata":"SEW","name":"Siwa Oasis North Airport","country":"Egypt","latitude":0,"longitude":0},{"id":6703,"iata":"SEZ","name":"Seychelles International Airport","country":"Seychelles","latitude":-4.6710544,"longitude":55.511444},{"id":6704,"iata":"SFA","name":"Sfax–Thyna International Airport","country":"Tunisia","latitude":34.72352,"longitude":10.689759},{"id":6714,"iata":"SFL","name":"São Filipe Airport","country":"Cape Verde","latitude":14.888497,"longitude":-24.484539},{"id":6747,"iata":"SGX","name":"Songea Airport","country":"Tanzania","latitude":-10.683333,"longitude":35.583332},{"id":6752,"iata":"SHC","name":"Shire Airport","country":"Ethiopia","latitude":14.0844965,"longitude":38.272602},{"id":6773,"iata":"SHY","name":"Shinyanga Airport","country":"Tanzania","latitude":-3.609553,"longitude":33.5049},{"id":6778,"iata":"SID","name":"Amílcar Cabral International Airport","country":"Cape Verde","latitude":16.73458,"longitude":-22.943975},{"id":6839,"iata":"SKO","name":"Sadiq Abubakar III International Airport","country":"Nigeria","latitude":12.917711,"longitude":5.2084002},{"id":6859,"iata":"SLI","name":"Solwezi Airport","country":"Zambia","latitude":-12.173821,"longitude":26.366972},{"id":6895,"iata":"SMS","name":"Sainte Marie Airport","country":"Madagascar","latitude":-17.08964,"longitude":49.81668},{"id":6905,"iata":"SNE","name":"Preguiça Airport","country":"Cape Verde","latitude":16.588451,"longitude":-24.284092},{"id":6961,"iata":"SPP","name":"Menongue Airport","country":"Angola","latitude":-14.659267,"longitude":17.7166},{"id":7016,"iata":"SRX","name":"Gardabya Airport","country":"Libya","latitude":31.063473,"longitude":16.595},{"id":7025,"iata":"SSG","name":"Malabo International Airport","country":"Equatorial Guinea","latitude":3.757791,"longitude":8.716096},{"id":7026,"iata":"SSH","name":"Sharm el-Sheikh International Airport","country":"Egypt","latitude":27.976828,"longitude":34.393528},{"id":7040,"iata":"SSY","name":"Mbanza Congo Airport","country":"Angola","latitude":-6.268748,"longitude":14.246498},{"id":7093,"iata":"SVB","name":"Sambava Airport","country":"Madagascar","latitude":-14.280171,"longitude":50.175453},{"id":7187,"iata":"SZA","name":"Soyo Airport","country":"Angola","latitude":-6.1407623,"longitude":12.370955},{"id":7242,"iata":"TBJ","name":"Tabarka–Aïn Draham International Airport","country":"Tunisia","latitude":36.97606,"longitude":8.876678},{"id":7247,"iata":"TBO","name":"Tabora Airport","country":"Tanzania","latitude":-5.073513,"longitude":32.834442},{"id":7265,"iata":"TCH","name":"Tchibanga Airport","country":"Gabon","latitude":-3.457935,"longitude":10.673864},{"id":7273,"iata":"TCP","name":"Taba International Airport","country":"Egypt","latitude":29.593668,"longitude":34.77595},{"id":7304,"iata":"TEE","name":"Cheikh Larbi Tébessi Airport","country":"Algeria","latitude":0,"longitude":0},{"id":7318,"iata":"TET","name":"Chingozi Airport","country":"Mozambique","latitude":-16.108334,"longitude":33.63972},{"id":7349,"iata":"TGR","name":"Sidi Mahdi Airport","country":"Algeria","latitude":33.06637,"longitude":6.0917554},{"id":7392,"iata":"TIN","name":"Tindouf Airport","country":"Algeria","latitude":27.70503,"longitude":-8.165394},{"id":7394,"iata":"TIP","name":"Tripoli International Airport","country":"Libya","latitude":32.669445,"longitude":13.156667},{"id":7432,"iata":"TKQ","name":"Kigoma Airport","country":"Tanzania","latitude":-4.8899293,"longitude":29.671646},{"id":7446,"iata":"TLE","name":"Toliara Airport","country":"Madagascar","latitude":-23.387861,"longitude":43.723194},{"id":7454,"iata":"TLM","name":"Zenata – Messali El Hadj Airport","country":"Algeria","latitude":35.012306,"longitude":-1.4479374},{"id":7479,"iata":"TML","name":"Tamale Airport","country":"Ghana","latitude":9.556552,"longitude":-0.8615559},{"id":7480,"iata":"TMM","name":"Toamasina Airport","country":"Madagascar","latitude":-18.109272,"longitude":49.39248},{"id":7485,"iata":"TMR","name":"Aguenar – Hadj Bey Akhamok Airport","country":"Algeria","latitude":22.811111,"longitude":5.450833},{"id":7486,"iata":"TMS","name":"São Tomé International Airport","country":"São Tomé and Príncipe","latitude":0.377778,"longitude":6.713056},{"id":7490,"iata":"TMX","name":"Timimoun Airport","country":"Algeria","latitude":29.236944,"longitude":0.275556},{"id":7499,"iata":"TNG","name":"Tangier Ibn Battouta Airport","country":"Morocco","latitude":35.726597,"longitude":-5.915068},{"id":7510,"iata":"TNR","name":"Ivato International Airport","country":"Madagascar","latitude":-18.799301,"longitude":47.47527},{"id":7522,"iata":"TOE","name":"Tozeur–Nefta International Airport","country":"Tunisia","latitude":33.935337,"longitude":8.111465},{"id":7530,"iata":"TOM","name":"Timbuktu Airport","country":"Mali","latitude":16.729183,"longitude":-3.0041106},{"id":7616,"iata":"TTA","name":"Tan Tan Airport","country":"Morocco","latitude":28.445442,"longitude":-11.159068},{"id":7633,"iata":"TTU","name":"Sania Ramel Airport","country":"Morocco","latitude":35.59109,"longitude":-5.33102},{"id":7647,"iata":"TUN","name":"Tunis–Carthage International Airport","country":"Tunisia","latitude":36.84586,"longitude":10.219074},{"id":7719,"iata":"UAS","name":"Samburu Airport","country":"Kenya","latitude":0.5341715,"longitude":37.532166},{"id":7745,"iata":"UEL","name":"Quelimane Airport","country":"Mozambique","latitude":-17.855427,"longitude":36.868587},{"id":7802,"iata":"ULU","name":"Gulu Airport","country":"Uganda","latitude":2.7909794,"longitude":32.272476},{"id":7880,"iata":"UTN","name":"Upington Airport","country":"South Africa","latitude":-28.408636,"longitude":21.255907},{"id":7885,"iata":"UTT","name":"Mthatha Airport","country":"South Africa","latitude":-31.548767,"longitude":28.671906},{"id":7900,"iata":"UYL","name":"Nyala Airport","country":"Sudan","latitude":12.054646,"longitude":24.954374},{"id":7965,"iata":"VFA","name":"Victoria Falls Airport","country":"Zimbabwe","latitude":-18.096323,"longitude":25.851418},{"id":7972,"iata":"VHC","name":"Henrique de Carvalho Airport","country":"Angola","latitude":-9.68971,"longitude":20.431423},{"id":7986,"iata":"VIL","name":"Dakhla Airport","country":"Morocco","latitude":23.71869,"longitude":-15.93188},{"id":8030,"iata":"VNX","name":"Vilankulo Airport","country":"Mozambique","latitude":-22.0156,"longitude":35.31233},{"id":8040,"iata":"VPE","name":"Ondjiva Pereira Airport","country":"Angola","latitude":-17.048004,"longitude":15.689486},{"id":8045,"iata":"VPY","name":"Chimoio Airport","country":"Mozambique","latitude":-19.14868,"longitude":33.426086},{"id":8083,"iata":"VVZ","name":"Takhamalt Airport","country":"Algeria","latitude":26.718187,"longitude":8.618452},{"id":8084,"iata":"VXC","name":"Lichinga Airport","country":"Mozambique","latitude":-13.274426,"longitude":35.264603},{"id":8085,"iata":"VXE","name":"Cesária Évora Airport","country":"Cape Verde","latitude":16.835642,"longitude":-25.054012},{"id":8104,"iata":"WAQ","name":"Antsalova Airport","country":"Madagascar","latitude":0,"longitude":0},{"id":8132,"iata":"WDH","name":"Hosea Kutako International Airport","country":"Namibia","latitude":-22.484776,"longitude":17.470316},{"id":8160,"iata":"WHF","name":"Wadi Halfa Airport","country":"Sudan","latitude":22.367252,"longitude":31.610336},{"id":8172,"iata":"WIL","name":"Wilson Airport","country":"Kenya","latitude":-1.3203869,"longitude":36.814903},{"id":8213,"iata":"WMN","name":"Maroantsetra Airport","country":"Madagascar","latitude":-15.437837,"longitude":49.689926},{"id":8285,"iata":"WTS","name":"Tsiroanomandidy Airport","country":"Madagascar","latitude":0,"longitude":0},{"id":8301,"iata":"WVB","name":"Walvis Bay Airport","country":"Namibia","latitude":-22.979721,"longitude":14.645278},{"id":8365,"iata":"XLS","name":"Saint-Louis Airport","country":"Senegal","latitude":38.746723,"longitude":-90.36542},{"id":8784,"iata":"YVA","name":"Iconi Airport","country":"Comoros","latitude":-11.711576,"longitude":43.243385},{"id":8911,"iata":"ZIG","name":"Ziguinchor Airport","country":"Senegal","latitude":12.555281,"longitude":-16.283842},{"id":8936,"iata":"ZNZ","name":"Abeid Amani Karume International Airport","country":"Tanzania","latitude":-6.2185335,"longitude":39.22138},{"id":19,"iata":"AAT","name":"Altay Airport","country":"China","latitude":0,"longitude":0},{"id":69,"iata":"ACX","name":"Xingyi Wanfenglin Airport","country":"China","latitude":25.085556,"longitude":104.95944},{"id":144,"iata":"AGR","name":"Agra Airport","country":"India","latitude":27.152697,"longitude":77.961754},{"id":150,"iata":"AGX","name":"Agatti Aerodrome","country":"India","latitude":10.828119,"longitude":72.179306},{"id":195,"iata":"AJL","name":"Lengpui Airport","country":"India","latitude":23.838848,"longitude":92.62417},{"id":201,"iata":"AKA","name":"Ankang Wulipu Airport","country":"China","latitude":32.707447,"longitude":108.939125},{"id":210,"iata":"AKJ","name":"Asahikawa Airport","country":"Japan","latitude":43.671078,"longitude":142.4539},{"id":221,"iata":"AKU","name":"Aksu Airport","country":"China","latitude":41.259983,"longitude":80.29262},{"id":224,"iata":"AKX","name":"Aktobe Airport","country":"Kazakhstan","latitude":50.248756,"longitude":57.210796},{"id":225,"iata":"AKY","name":"Sittwe Airport","country":"Myanmar","latitude":20.134836,"longitude":92.87314},{"id":226,"iata":"ALA","name":"Almaty International Airport","country":"Kazakhstan","latitude":43.349926,"longitude":77.02529},{"id":254,"iata":"AMD","name":"Sardar Vallabhbhai Patel International Airport","country":"India","latitude":23.073425,"longitude":72.62657},{"id":259,"iata":"AMI","name":"Selaparang Airport","country":"Indonesia","latitude":-8.560627,"longitude":116.100525},{"id":267,"iata":"AMQ","name":"Pattimura Airport","country":"Indonesia","latitude":-3.7057908,"longitude":128.08888},{"id":307,"iata":"AOJ","name":"Aomori Airport","country":"Japan","latitude":40.73828,"longitude":140.6891},{"id":314,"iata":"AOR","name":"Sultan Abdul Halim Airport","country":"Malaysia","latitude":6.1919985,"longitude":100.39505},{"id":342,"iata":"AQG","name":"Anqing Tianzhushan Airport","country":"China","latitude":30.5831,"longitude":117.05164},{"id":375,"iata":"ASB","name":"Ashgabat International Airport","country":"Turkmenistan","latitude":37.984512,"longitude":58.366512},{"id":383,"iata":"ASJ","name":"Amami Airport","country":"Japan","latitude":28.430834,"longitude":129.7125},{"id":415,"iata":"ATQ","name":"Sri Guru Ram Dass Jee International Airport","country":"India","latitude":31.70724,"longitude":74.7989},{"id":488,"iata":"AXT","name":"Akita Airport","country":"Japan","latitude":39.6119,"longitude":140.21986},{"id":516,"iata":"AZN","name":"Andizhan Airport","country":"Uzbekistan","latitude":40.739174,"longitude":72.31322},{"id":529,"iata":"BAG","name":"Loakan Airport","country":"Philippines","latitude":0,"longitude":0},{"id":542,"iata":"BAV","name":"Baotou Airport","country":"China","latitude":40.566456,"longitude":110.0022},{"id":553,"iata":"BBI","name":"Biju Patnaik International Airport","country":"India","latitude":20.250677,"longitude":85.81453},{"id":558,"iata":"BBN","name":"Bario Airport","country":"Malaysia","latitude":3.734438,"longitude":115.47976},{"id":574,"iata":"BCD","name":"Bacolod–Silay International Airport","country":"Philippines","latitude":10.776625,"longitude":123.01491},{"id":605,"iata":"BDJ","name":"Syamsudin Noor Airport","country":"Indonesia","latitude":-3.438203,"longitude":114.75417},{"id":610,"iata":"BDO","name":"Husein Sastranegara International Airport","country":"Indonesia","latitude":0,"longitude":0},{"id":611,"iata":"BDP","name":"Bhadrapur Airport","country":"Nepal","latitude":26.569523,"longitude":88.07745},{"id":612,"iata":"BDQ","name":"Vadodara Airport","country":"India","latitude":22.332462,"longitude":73.21706},{"id":637,"iata":"BEP","name":"Bellary Airport","country":"India","latitude":15.17847,"longitude":76.628204},{"id":668,"iata":"BFV","name":"Buriram Airport","country":"Thailand","latitude":15.228529,"longitude":103.25067},{"id":704,"iata":"BHJ","name":"Bhuj Airport / Bhuj Rudra Mata Air Force Base","country":"India","latitude":23.2856,"longitude":69.67067},{"id":705,"iata":"BHK","name":"Bukhara International Airport","country":"Uzbekistan","latitude":39.760323,"longitude":64.47532},{"id":709,"iata":"BHO","name":"Raja Bhoj Airport","country":"India","latitude":23.29079,"longitude":77.33566},{"id":712,"iata":"BHR","name":"Bharatpur Airport","country":"Nepal","latitude":27.678085,"longitude":84.42995},{"id":715,"iata":"BHU","name":"Bhavnagar Airport","country":"India","latitude":21.75378,"longitude":72.183426},{"id":716,"iata":"BHV","name":"Bahawalpur Airport","country":"Pakistan","latitude":29.34989,"longitude":71.71123},{"id":719,"iata":"BHY","name":"Beihai Fucheng Airport","country":"China","latitude":21.540485,"longitude":109.29339},{"id":730,"iata":"BIK","name":"Frans Kaisiepo Airport","country":"Indonesia","latitude":-1.1894938,"longitude":136.10849},{"id":737,"iata":"BIR","name":"Biratnagar Airport","country":"Nepal","latitude":26.482447,"longitude":87.26352},{"id":764,"iata":"BJS","name":"metropolitan area4","country":"China","latitude":0,"longitude":0},{"id":780,"iata":"BKI","name":"Kota Kinabalu International Airport","country":"Malaysia","latitude":5.923076,"longitude":116.05102},{"id":782,"iata":"BKK","name":"Suvarnabhumi Airport","country":"Thailand","latitude":13.689999,"longitude":100.750114},{"id":784,"iata":"BKM","name":"Bakelalan Airport","country":"Malaysia","latitude":3.9753008,"longitude":115.61829},{"id":790,"iata":"BKS","name":"Fatmawati Soekarno Airport","country":"Indonesia","latitude":-3.8605714,"longitude":102.33933},{"id":814,"iata":"BLR","name":"Kempegowda International Airport","country":"India","latitude":13.198635,"longitude":77.7066},{"id":836,"iata":"BMO","name":"Bhamo Airport","country":"Myanmar","latitude":24.26829,"longitude":97.24973},{"id":842,"iata":"BMU","name":"Sultan Muhammad Salahudin Airport","country":"Indonesia","latitude":-8.541816,"longitude":118.69219},{"id":843,"iata":"BMV","name":"Buon Ma Thuot Airport","country":"Vietnam","latitude":12.664714,"longitude":108.117226},{"id":883,"iata":"BOM","name":"Chhatrapati Shivaji International Airport","country":"India","latitude":19.08956,"longitude":72.865616},{"id":907,"iata":"BPN","name":"Sultan Aji Muhammad Sulaiman Airport","country":"Indonesia","latitude":-1.2658151,"longitude":116.89773},{"id":910,"iata":"BPX","name":"Qamdo Bamda Airport","country":"China","latitude":30.549778,"longitude":97.106514},{"id":955,"iata":"BSD","name":"Baoshan Yunduan Airport","country":"China","latitude":25.051563,"longitude":99.165794},{"id":965,"iata":"BSO","name":"Basco Airport","country":"Philippines","latitude":20.451561,"longitude":121.98067},{"id":974,"iata":"BSX","name":"Pathein Airport","country":"Myanmar","latitude":16.815973,"longitude":94.77552},{"id":983,"iata":"BTH","name":"Hang Nadim Airport","country":"Indonesia","latitude":1.1219254,"longitude":104.11829},{"id":985,"iata":"BTJ","name":"Sultan Iskandar Muda International Airport","country":"Indonesia","latitude":5.5188994,"longitude":95.41852},{"id":996,"iata":"BTU","name":"Bintulu Airport","country":"Malaysia","latitude":3.1238103,"longitude":113.02402},{"id":1019,"iata":"BUS","name":"Batumi International Airport","country":"Georgia","latitude":41.60679,"longitude":41.61085},{"id":1048,"iata":"BWA","name":"Gautam Buddha Airport","country":"Nepal","latitude":27.506992,"longitude":83.41994},{"id":1061,"iata":"BWN","name":"Brunei International Airport","country":"Brunei","latitude":4.945566,"longitude":114.93306},{"id":1087,"iata":"BXU","name":"Bancasi Airport","country":"Philippines","latitude":8.948707,"longitude":125.48144},{"id":1104,"iata":"BYN","name":"Bayankhongor Airport","country":"Mongolia","latitude":46.165314,"longitude":100.70354},{"id":1125,"iata":"BZL","name":"Barisal Airport","country":"Bangladesh","latitude":22.798735,"longitude":90.299835},{"id":1143,"iata":"CAH","name":"Cà Mau Airport","country":"Vietnam","latitude":9.175962,"longitude":105.1757},{"id":1149,"iata":"CAN","name":"Guangzhou Baiyun International Airport","country":"China","latitude":23.395908,"longitude":113.30797},{"id":1175,"iata":"CBO","name":"Awang Airport","country":"Philippines","latitude":7.1633124,"longitude":124.214005},{"id":1192,"iata":"CCJ","name":"Calicut International Airport","country":"India","latitude":11.139777,"longitude":75.950806},{"id":1193,"iata":"CCK","name":"Cocos Islands Airport","country":"Australia","latitude":-12.190961,"longitude":96.83309},{"id":1202,"iata":"CCU","name":"Netaji Subhas Chandra Bose International Airport","country":"India","latitude":22.652042,"longitude":88.44633},{"id":1231,"iata":"CEB","name":"Mactan–Cebu International Airport","country":"Philippines","latitude":10.310656,"longitude":123.980225},{"id":1238,"iata":"CEI","name":"Chiang Rai International Airport","country":"Thailand","latitude":19.95437,"longitude":99.87901},{"id":1275,"iata":"CGD","name":"Changde Taohuayuan Airport","country":"China","latitude":28.921185,"longitude":111.64358},{"id":1282,"iata":"CGK","name":"Soekarno–Hatta International Airport","country":"Indonesia","latitude":-6.127528,"longitude":106.65371},{"id":1283,"iata":"CGM","name":"Camiguin Airport","country":"Philippines","latitude":9.25152,"longitude":124.7047},{"id":1285,"iata":"CGO","name":"Zhengzhou Xinzheng International Airport","country":"China","latitude":34.52534,"longitude":113.84615},{"id":1286,"iata":"CGP","name":"Shah Amanat International Airport","country":"Bangladesh","latitude":22.245699,"longitude":91.81468},{"id":1287,"iata":"CGQ","name":"Changchun Longjia International Airport","country":"China","latitude":43.99522,"longitude":125.697044},{"id":1292,"iata":"CGY","name":"Laguindingan Airport","country":"Philippines","latitude":8.60855,"longitude":124.45849},{"id":1321,"iata":"CIF","name":"Chifeng Yulong Airport","country":"China","latitude":42.15639,"longitude":118.84001},{"id":1323,"iata":"CIH","name":"Changzhi Wangcun Airport","country":"China","latitude":36.24689,"longitude":113.12857},{"id":1335,"iata":"CIT","name":"Shymkent International Airport","country":"Kazakhstan","latitude":42.366173,"longitude":69.4931},{"id":1342,"iata":"CJB","name":"Coimbatore International Airport","country":"India","latitude":11.031431,"longitude":77.043434},{"id":1347,"iata":"CJJ","name":"Cheongju International Airport","country":"South Korea","latitude":36.721977,"longitude":127.49589},{"id":1348,"iata":"CJL","name":"Chitral Airport","country":"Pakistan","latitude":35.886112,"longitude":71.79972},{"id":1352,"iata":"CJU","name":"Jeju International Airport","country":"South Korea","latitude":33.510414,"longitude":126.491356},{"id":1358,"iata":"CKG","name":"Chongqing Jiangbei International Airport","country":"China","latitude":29.719166,"longitude":106.64167},{"id":1447,"iata":"CNX","name":"Chiang Mai International Airport","country":"Thailand","latitude":18.76775,"longitude":98.96401},{"id":1460,"iata":"COK","name":"Cochin International Airport","country":"India","latitude":10.151783,"longitude":76.39296},{"id":1466,"iata":"COQ","name":"Choibalsan Airport","country":"Mongolia","latitude":48.136353,"longitude":114.64434},{"id":1510,"iata":"CRK","name":"Clark International Airport","country":"Philippines","latitude":15.1846485,"longitude":120.55692},{"id":1512,"iata":"CRM","name":"Catarman National Airport","country":"Philippines","latitude":12.50485,"longitude":124.63632},{"id":1544,"iata":"CSX","name":"Changsha Huanghua International Airport","country":"China","latitude":28.196667,"longitude":113.22083},{"id":1564,"iata":"CTS","name":"New Chitose Airport","country":"Japan","latitude":42.792595,"longitude":141.67047},{"id":1566,"iata":"CTU","name":"Chengdu Shuangliu International Airport","country":"China","latitude":30.567455,"longitude":103.949295},{"id":1624,"iata":"CXB","name":"Cox's Bazar Airport","country":"Bangladesh","latitude":21.45124,"longitude":91.96621},{"id":1635,"iata":"CXR","name":"Cam Ranh International Airport","country":"Vietnam","latitude":12.00708,"longitude":109.216835},{"id":1644,"iata":"CYI","name":"Chiayi Airport","country":"Taiwan","latitude":23.454597,"longitude":120.403885},{"id":1648,"iata":"CYP","name":"Calbayog Airport","country":"Philippines","latitude":12.078293,"longitude":124.54502},{"id":1652,"iata":"CYU","name":"Cuyo Airport","country":"Philippines","latitude":10.860326,"longitude":121.07037},{"id":1673,"iata":"CZX","name":"Changzhou Benniu Airport","country":"China","latitude":31.912048,"longitude":119.783936},{"id":1677,"iata":"DAC","name":"Shahjalal International Airport","country":"Bangladesh","latitude":23.843435,"longitude":90.40292},{"id":1678,"iata":"DAD","name":"Da Nang International Airport","country":"Vietnam","latitude":16.056273,"longitude":108.20256},{"id":1690,"iata":"DAT","name":"Datong Yungang Airport","country":"China","latitude":40.05788,"longitude":113.486885},{"id":1693,"iata":"DAX","name":"Dazhou Heshi Airport","country":"China","latitude":31.129946,"longitude":107.43145},{"id":1696,"iata":"DBA","name":"Dalbandin Airport","country":"Pakistan","latitude":26.955217,"longitude":64.13582},{"id":1722,"iata":"DDG","name":"Dandong Langtou Airport","country":"China","latitude":40.02575,"longitude":124.28692},{"id":1726,"iata":"DEA","name":"Dera Ghazi Khan International Airport","country":"Pakistan","latitude":29.960316,"longitude":70.4896},{"id":1729,"iata":"DED","name":"Jolly Grant Airport","country":"India","latitude":30.194925,"longitude":78.19205},{"id":1734,"iata":"DEL","name":"Indira Gandhi International Airport","country":"India","latitude":28.556162,"longitude":77.09996},{"id":1758,"iata":"DGT","name":"Sibulan Airport","country":"Philippines","latitude":9.333735,"longitude":123.29593},{"id":1767,"iata":"DHM","name":"Gaggal Airport","country":"India","latitude":32.165157,"longitude":76.26255},{"id":1771,"iata":"DIB","name":"Dibrugarh Airport","country":"India","latitude":27.485765,"longitude":95.01594},{"id":1773,"iata":"DIG","name":"Diqing Shangri-La Airport","country":"China","latitude":27.793146,"longitude":99.68186},{"id":1776,"iata":"DIL","name":"Presidente Nicolau Lobato International Airport","country":"East Timor","latitude":-8.54956,"longitude":125.52487},{"id":1778,"iata":"DIN","name":"Dien Bien Phu Airport","country":"Vietnam","latitude":21.400822,"longitude":103.00595},{"id":1783,"iata":"DIU","name":"Diu Airport","country":"India","latitude":20.71332,"longitude":70.925},{"id":1788,"iata":"DJB","name":"Sultan Thaha Airport","country":"Indonesia","latitude":-1.6324292,"longitude":103.64325},{"id":1792,"iata":"DJJ","name":"Sentani Airport","country":"Indonesia","latitude":-2.5748985,"longitude":140.51498},{"id":1805,"iata":"DLC","name":"Dalian Zhoushuizi International Airport","country":"China","latitude":38.965557,"longitude":121.53833},{"id":1810,"iata":"DLI","name":"Lien Khuong Airport","country":"Vietnam","latitude":11.750342,"longitude":108.36818},{"id":1816,"iata":"DLU","name":"Dali Airport","country":"China","latitude":25.651112,"longitude":100.31834},{"id":1819,"iata":"DLZ","name":"Dalanzadgad Airport","country":"Mongolia","latitude":43.606377,"longitude":104.3704},{"id":1824,"iata":"DMK","name":"Don Mueang International Airport","country":"Thailand","latitude":13.91326,"longitude":100.6042},{"id":1830,"iata":"DMU","name":"Dimapur Airport","country":"India","latitude":25.918362,"longitude":93.72447},{"id":1836,"iata":"DNH","name":"Dunhuang Airport","country":"China","latitude":40.16612,"longitude":94.805046},{"id":1864,"iata":"DOP","name":"Dolpa Airport","country":"Nepal","latitude":28.985348,"longitude":82.81953},{"id":1870,"iata":"DOY","name":"Dongying Shengli Airport","country":"China","latitude":37.50992,"longitude":118.79348},{"id":1874,"iata":"DPL","name":"Dipolog Airport","country":"Philippines","latitude":8.600481,"longitude":123.343216},{"id":1876,"iata":"DPS","name":"Ngurah Rai International Airport","country":"Indonesia","latitude":-8.746717,"longitude":115.16679},{"id":1909,"iata":"DSN","name":"Ordos Ejin Horo Airport","country":"China","latitude":39.49555,"longitude":109.87068},{"id":1945,"iata":"DVO","name":"Francisco Bangoy International Airport","country":"Philippines","latitude":7.128764,"longitude":125.64608},{"id":1961,"iata":"DYG","name":"Zhangjiajie Hehua Airport","country":"China","latitude":29.103855,"longitude":110.451195},{"id":1966,"iata":"DYU","name":"Dushanbe International Airport","country":"Tajikistan","latitude":38.54864,"longitude":68.8155},{"id":1970,"iata":"DZN","name":"Zhezkazgan Airport","country":"Kazakhstan","latitude":47.713898,"longitude":67.73686},{"id":2109,"iata":"ENE","name":"H. Hasan Aroeboesman Airport","country":"Indonesia","latitude":-8.848758,"longitude":121.66337},{"id":2111,"iata":"ENH","name":"Enshi Xujiaping Airport","country":"China","latitude":30.31939,"longitude":109.48721},{"id":2112,"iata":"ENI","name":"El Nido Airport","country":"Philippines","latitude":11.202154,"longitude":119.41646},{"id":2123,"iata":"ENY","name":"Yan'an Ershilipu Airport","country":"China","latitude":36.639366,"longitude":109.55148},{"id":2204,"iata":"EVN","name":"Zvartnots International Airport","country":"Armenia","latitude":40.149178,"longitude":44.398857},{"id":2275,"iata":"FEG","name":"Fergana International Airport","country":"Uzbekistan","latitude":40.37599,"longitude":71.75197},{"id":2309,"iata":"FKQ","name":"Fakfak Torea Airport","country":"Indonesia","latitude":-2.9190412,"longitude":132.26434},{"id":2310,"iata":"FKS","name":"Fukushima Airport","country":"Japan","latitude":37.228424,"longitude":140.42863},{"id":2348,"iata":"FNJ","name":"Pyongyang Sunan International Airport","country":"North Korea","latitude":39.200848,"longitude":125.67654},{"id":2355,"iata":"FOC","name":"Fuzhou Changle International Airport","country":"China","latitude":25.930637,"longitude":119.6702},{"id":2388,"iata":"FRU","name":"Manas International Airport","country":"Kyrgyzstan","latitude":43.05424,"longitude":74.469505},{"id":2413,"iata":"FUG","name":"Fuyang Xiguan Airport","country":"China","latitude":32.877525,"longitude":115.743835},{"id":2414,"iata":"FUJ","name":"Fukue Airport","country":"Japan","latitude":32.66827,"longitude":128.8374},{"id":2415,"iata":"FUK","name":"Fukuoka Airport","country":"Japan","latitude":33.590313,"longitude":130.44672},{"id":2446,"iata":"GAJ","name":"Yamagata Airport","country":"Japan","latitude":38.410633,"longitude":140.36646},{"id":2449,"iata":"GAN","name":"Gan International Airport","country":"Maldives","latitude":-0.693184,"longitude":73.15568},{"id":2456,"iata":"GAU","name":"Lokpriya Gopinath Bordoloi International Airport","country":"India","latitude":26.106472,"longitude":91.586044},{"id":2460,"iata":"GAY","name":"Gaya Airport","country":"India","latitude":24.748821,"longitude":84.94373},{"id":2522,"iata":"GES","name":"General Santos International Airport","country":"Philippines","latitude":6.0575323,"longitude":125.09975},{"id":2565,"iata":"GIL","name":"Gilgit Airport","country":"Pakistan","latitude":35.919365,"longitude":74.33205},{"id":2620,"iata":"GMP","name":"Gimpo International Airport","country":"South Korea","latitude":37.558655,"longitude":126.79447},{"id":2649,"iata":"GOI","name":"Goa International Airport","country":"India","latitude":15.380348,"longitude":73.83499},{"id":2656,"iata":"GOP","name":"Gorakhpur Airport","country":"India","latitude":26.745596,"longitude":83.449104},{"id":2657,"iata":"GOQ","name":"Golmud Airport","country":"China","latitude":36.40353,"longitude":94.7906},{"id":2724,"iata":"GTO","name":"Jalaluddin Airport","country":"Indonesia","latitude":0.6401188,"longitude":122.84471},{"id":2751,"iata":"GUW","name":"Atyrau Airport","country":"Kazakhstan","latitude":47.122448,"longitude":51.83045},{"id":2765,"iata":"GWD","name":"Gwadar International Airport","country":"Pakistan","latitude":25.23185,"longitude":62.329315},{"id":2767,"iata":"GWL","name":"Rajmata Vijaya Raje Scindia Airport","country":"India","latitude":26.2855,"longitude":78.21717},{"id":2781,"iata":"GYD","name":"Heydar Aliyev International Airport","country":"Azerbaijan","latitude":40.465057,"longitude":50.052315},{"id":2801,"iata":"HAC","name":"Hachijojima Airport","country":"Japan","latitude":33.116528,"longitude":139.78275},{"id":2807,"iata":"HAK","name":"Haikou Meilan International Airport","country":"China","latitude":19.93854,"longitude":110.462135},{"id":2810,"iata":"HAN","name":"Noi Bai International Airport","country":"Vietnam","latitude":21.218716,"longitude":105.80417},{"id":2812,"iata":"HAQ","name":"Hanimaadhoo International Airport","country":"Maldives","latitude":6.7464924,"longitude":73.169174},{"id":2830,"iata":"HBX","name":"Hubli Airport","country":"India","latitude":15.360923,"longitude":75.08346},{"id":2835,"iata":"HCN","name":"Hengchun Airport","country":"Taiwan","latitude":22.039629,"longitude":120.73303},{"id":2849,"iata":"HDY","name":"Hat Yai International Airport","country":"Thailand","latitude":6.936216,"longitude":100.39372},{"id":2854,"iata":"HEH","name":"Heho Airport","country":"Myanmar","latitude":20.743055,"longitude":96.79278},{"id":2856,"iata":"HEK","name":"Heihe Airport","country":"China","latitude":50.178688,"longitude":127.31357},{"id":2862,"iata":"HET","name":"Hohhot Baita International Airport","country":"China","latitude":40.85548,"longitude":111.82155},{"id":2866,"iata":"HFE","name":"Hefei Xinqiao International Airport","country":"China","latitude":31.9869,"longitude":116.96921},{"id":2874,"iata":"HGH","name":"Hangzhou Xiaoshan International Airport","country":"China","latitude":30.235949,"longitude":120.43889},{"id":2877,"iata":"HGN","name":"Mae Hong Son Airport","country":"Thailand","latitude":19.301666,"longitude":97.975},{"id":2887,"iata":"HHQ","name":"Hua Hin Airport","country":"Thailand","latitude":12.627487,"longitude":99.951546},{"id":2897,"iata":"HIJ","name":"Hiroshima Airport","country":"Japan","latitude":34.439766,"longitude":132.91904},{"id":2900,"iata":"HIN","name":"Sacheon Airport","country":"South Korea","latitude":35.09238,"longitude":128.08646},{"id":2907,"iata":"HJR","name":"Civil Aerodrome Khajuraho","country":"India","latitude":24.81879,"longitude":79.91663},{"id":2911,"iata":"HKD","name":"Hakodate Airport","country":"Japan","latitude":41.775703,"longitude":140.81583},{"id":2916,"iata":"HKT","name":"Phuket International Airport","country":"Thailand","latitude":8.111095,"longitude":98.306465},{"id":2922,"iata":"HLD","name":"Hulunbuir Hailar Airport","country":"China","latitude":49.213318,"longitude":119.82406},{"id":2926,"iata":"HLH","name":"Ulanhot Airport","country":"China","latitude":46.195427,"longitude":122.00792},{"id":2950,"iata":"HNA","name":"Hanamaki Airport","country":"Japan","latitude":39.42149,"longitude":141.13841},{"id":2953,"iata":"HND","name":"Haneda Airport","country":"Japan","latitude":35.549393,"longitude":139.77985},{"id":2965,"iata":"HOE","name":"Ban Huoeisay Airport","country":"Laos","latitude":20.258106,"longitude":100.43724},{"id":2987,"iata":"HPH","name":"Cat Bi International Airport","country":"Vietnam","latitude":20.821383,"longitude":106.72624},{"id":2993,"iata":"HRB","name":"Harbin Taiping International Airport","country":"China","latitude":45.62244,"longitude":126.24338},{"id":3009,"iata":"HSG","name":"Saga Airport","country":"Japan","latitude":33.15334,"longitude":130.30309},{"id":3016,"iata":"HSN","name":"Zhoushan Putuoshan Airport","country":"China","latitude":29.931587,"longitude":122.359375},{"id":3028,"iata":"HTN","name":"Hotan Airport","country":"China","latitude":37.039883,"longitude":79.87447},{"id":3046,"iata":"HUI","name":"Phu Bai International Airport","country":"Vietnam","latitude":16.39835,"longitude":107.70036},{"id":3051,"iata":"HUN","name":"Hualien Airport","country":"Taiwan","latitude":24.02545,"longitude":121.61482},{"id":3064,"iata":"HVD","name":"Khovd Airport","country":"Mongolia","latitude":47.96149,"longitude":91.624535},{"id":3081,"iata":"HYD","name":"Rajiv Gandhi International Airport","country":"India","latitude":17.240263,"longitude":78.42938},{"id":3085,"iata":"HYN","name":"Taizhou Luqiao Airport","country":"China","latitude":28.564919,"longitude":121.46046},{"id":3090,"iata":"HZG","name":"Hanzhong Chenggu Airport","country":"China","latitude":0,"longitude":0},{"id":3122,"iata":"ICN","name":"Incheon International Airport","country":"South Korea","latitude":37.46019,"longitude":126.4407},{"id":3138,"iata":"IDR","name":"Devi Ahilyabai Holkar International Airport","country":"India","latitude":22.727684,"longitude":75.80441},{"id":3198,"iata":"ILO","name":"Iloilo International Airport","country":"Philippines","latitude":10.8315,"longitude":122.49621},{"id":3209,"iata":"IMF","name":"Imphal International Airport","country":"India","latitude":24.75406,"longitude":93.89402},{"id":3212,"iata":"IMK","name":"Simikot Airport","country":"Nepal","latitude":29.971079,"longitude":81.818665},{"id":3221,"iata":"INC","name":"Yinchuan Hedong International Airport","country":"China","latitude":38.322624,"longitude":106.38858},{"id":3254,"iata":"IPH","name":"Sultan Azlan Shah Airport","country":"Malaysia","latitude":4.569351,"longitude":101.09389},{"id":3261,"iata":"IQM","name":"Qiemo Airport","country":"China","latitude":38.144306,"longitude":85.53562},{"id":3262,"iata":"IQN","name":"Qingyang Airport","country":"China","latitude":35.79972,"longitude":107.602776},{"id":3282,"iata":"ISB","name":"Islamabad International Airport","country":"Pakistan","latitude":33.608784,"longitude":73.10385},{"id":3286,"iata":"ISG","name":"New Ishigaki Airport","country":"Japan","latitude":24.390825,"longitude":124.24587},{"id":3306,"iata":"ITM","name":"Osaka International Airport","country":"Japan","latitude":34.79074,"longitude":135.4416},{"id":3313,"iata":"IUE","name":"Niue International Airport","country":"Niue","latitude":-19.077778,"longitude":-169.92667},{"id":3326,"iata":"IWJ","name":"Iwami Airport","country":"Japan","latitude":34.678432,"longitude":131.79678},{"id":3330,"iata":"IXA","name":"Agartala Airport","country":"India","latitude":23.892742,"longitude":91.24384},{"id":3331,"iata":"IXB","name":"Bagdogra Airport","country":"India","latitude":26.684994,"longitude":88.325424},{"id":3332,"iata":"IXC","name":"Chandigarh Airport","country":"India","latitude":30.667767,"longitude":76.78623},{"id":3333,"iata":"IXD","name":"Allahabad Airport","country":"India","latitude":25.443747,"longitude":81.740425},{"id":3334,"iata":"IXE","name":"Mangalore Airport","country":"India","latitude":12.954507,"longitude":74.88564},{"id":3335,"iata":"IXG","name":"Belgaum Airport","country":"India","latitude":15.861036,"longitude":74.61295},{"id":3337,"iata":"IXI","name":"Lilabari Airport","country":"India","latitude":27.28747,"longitude":94.093},{"id":3338,"iata":"IXJ","name":"Jammu Airport","country":"India","latitude":32.68085,"longitude":74.84235},{"id":3340,"iata":"IXL","name":"Kushok Bakula Rimpochee Airport","country":"India","latitude":34.142536,"longitude":77.55548},{"id":3341,"iata":"IXM","name":"Madurai Airport","country":"India","latitude":9.838431,"longitude":78.089455},{"id":3345,"iata":"IXR","name":"Birsa Munda Airport","country":"India","latitude":23.31725,"longitude":85.325226},{"id":3346,"iata":"IXS","name":"Silchar Airport","country":"India","latitude":24.912706,"longitude":92.9789},{"id":3348,"iata":"IXU","name":"Aurangabad Airport","country":"India","latitude":19.863972,"longitude":75.39605},{"id":3350,"iata":"IXW","name":"Sonari Airport","country":"India","latitude":22.815348,"longitude":86.171814},{"id":3351,"iata":"IXY","name":"Kandla Airport","country":"India","latitude":23.111588,"longitude":70.104004},{"id":3352,"iata":"IXZ","name":"Veer Savarkar International Airport","country":"India","latitude":11.641516,"longitude":92.730125},{"id":3356,"iata":"IZO","name":"Izumo Airport","country":"Japan","latitude":35.414772,"longitude":132.88605},{"id":3365,"iata":"JAI","name":"Jaipur International Airport","country":"India","latitude":26.828945,"longitude":75.80562},{"id":3393,"iata":"JDH","name":"Jodhpur Airport","country":"India","latitude":26.255365,"longitude":73.04982},{"id":3397,"iata":"JDZ","name":"Jingdezhen Luojia Airport","country":"China","latitude":29.3386,"longitude":117.176},{"id":3409,"iata":"JGA","name":"Jamnagar Airport","country":"India","latitude":22.46071,"longitude":70.0159},{"id":3412,"iata":"JGN","name":"Jiayuguan Airport","country":"China","latitude":39.86459,"longitude":98.34085},{"id":3413,"iata":"JGS","name":"Jinggangshan Airport","country":"China","latitude":26.85098,"longitude":114.7476},{"id":3414,"iata":"JHB","name":"Senai International Airport","country":"Malaysia","latitude":1.6367702,"longitude":103.669556},{"id":3415,"iata":"JHG","name":"Xishuangbanna Gasa Airport","country":"China","latitude":21.971031,"longitude":100.7647},{"id":3431,"iata":"JIU","name":"Jiujiang Lushan Airport","country":"China","latitude":29.481182,"longitude":115.80777},{"id":3437,"iata":"JJN","name":"Quanzhou Jinjiang International Airport","country":"China","latitude":24.799372,"longitude":118.59464},{"id":3442,"iata":"JKT","name":"metropolitan area2","country":"Indonesia","latitude":0,"longitude":0},{"id":3447,"iata":"JLR","name":"Jabalpur Airport","country":"India","latitude":23.17826,"longitude":80.05213},{"id":3453,"iata":"JMU","name":"Jiamusi Dongjiao Airport","country":"China","latitude":46.846924,"longitude":130.46413},{"id":3461,"iata":"JNZ","name":"Jinzhou Bay Airport","country":"China","latitude":41.096172,"longitude":121.07295},{"id":3463,"iata":"JOG","name":"Adisucipto International Airport","country":"Indonesia","latitude":-7.787684,"longitude":110.43176},{"id":3468,"iata":"JOL","name":"Jolo Airport","country":"Philippines","latitude":6.0529723,"longitude":121.00553},{"id":3478,"iata":"JRH","name":"Jorhat Airport","country":"India","latitude":26.729694,"longitude":94.172585},{"id":3482,"iata":"JSA","name":"Jaisalmer Airport","country":"India","latitude":26.870623,"longitude":70.855865},{"id":3487,"iata":"JSR","name":"Jessore Airport","country":"Bangladesh","latitude":23.177055,"longitude":89.16042},{"id":3501,"iata":"JUM","name":"Jumla Airport","country":"Nepal","latitude":29.273886,"longitude":82.19202},{"id":3507,"iata":"JUZ","name":"Quzhou Airport","country":"China","latitude":28.96777,"longitude":118.90135},{"id":3518,"iata":"JZH","name":"Jiuzhai Huanglong Airport","country":"China","latitude":32.851612,"longitude":103.68846},{"id":3540,"iata":"KAW","name":"Kawthaung Airport","country":"Myanmar","latitude":10.051637,"longitude":98.54043},{"id":3559,"iata":"KBR","name":"Sultan Ismail Petra Airport","country":"Malaysia","latitude":6.169772,"longitude":102.29318},{"id":3563,"iata":"KBV","name":"Krabi Airport","country":"Thailand","latitude":8.09928,"longitude":98.98319},{"id":3568,"iata":"KCA","name":"Kuqa Qiuci Airport","country":"China","latitude":41.682663,"longitude":82.87669},{"id":3573,"iata":"KCF","name":"Kadanwari Airport","country":"Pakistan","latitude":27.199245,"longitude":69.15347},{"id":3575,"iata":"KCH","name":"Kuching International Airport","country":"Malaysia","latitude":1.4868501,"longitude":110.341736},{"id":3589,"iata":"KCZ","name":"Kōchi Ryōma Airport","country":"Japan","latitude":33.547493,"longitude":133.67415},{"id":3596,"iata":"KDI","name":"Haluoleo Airport","country":"Indonesia","latitude":-4.0772347,"longitude":122.41728},{"id":3600,"iata":"KDM","name":"Kaadedhdhoo Airport","country":"Maldives","latitude":0.4882015,"longitude":72.99552},{"id":3602,"iata":"KDO","name":"Kadhdhoo Airport","country":"Maldives","latitude":1.8619745,"longitude":73.52004},{"id":3608,"iata":"KDU","name":"Skardu Airport","country":"Pakistan","latitude":35.339443,"longitude":75.54139},{"id":3628,"iata":"KEP","name":"Nepalgunj Airport","country":"Nepal","latitude":28.101824,"longitude":81.667336},{"id":3632,"iata":"KET","name":"Kengtung Airport","country":"Myanmar","latitude":21.282711,"longitude":99.623},{"id":3649,"iata":"KGF","name":"Sary-Arka Airport","country":"Kazakhstan","latitude":49.670834,"longitude":73.33444},{"id":3672,"iata":"KHG","name":"Kashgar Airport","country":"China","latitude":39.534973,"longitude":76.01107},{"id":3673,"iata":"KHH","name":"Kaohsiung International Airport","country":"Taiwan","latitude":22.574629,"longitude":120.34481},{"id":3674,"iata":"KHI","name":"Jinnah International Airport","country":"Pakistan","latitude":24.900782,"longitude":67.168106},{"id":3677,"iata":"KHM","name":"Khamti Airport","country":"Myanmar","latitude":25.987867,"longitude":95.67406},{"id":3678,"iata":"KHN","name":"Nanchang Changbei International Airport","country":"China","latitude":28.857464,"longitude":115.91067},{"id":3698,"iata":"KIJ","name":"Niigata Airport","country":"Japan","latitude":37.953465,"longitude":139.11354},{"id":3712,"iata":"KIX","name":"Kansai International Airport","country":"Japan","latitude":34.432003,"longitude":135.2304},{"id":3725,"iata":"KKC","name":"Khon Kaen Airport","country":"Thailand","latitude":16.46495,"longitude":102.78706},{"id":3731,"iata":"KKJ","name":"Kitakyushu Airport","country":"Japan","latitude":33.83811,"longitude":131.0321},{"id":3752,"iata":"KLH","name":"Kolhapur Airport","country":"India","latitude":16.66523,"longitude":74.28275},{"id":3758,"iata":"KLO","name":"Kalibo International Airport","country":"Philippines","latitude":11.685932,"longitude":122.38085},{"id":3773,"iata":"KMG","name":"Kunming Changshui International Airport","country":"China","latitude":25.09586,"longitude":102.928505},{"id":3775,"iata":"KMI","name":"Miyazaki Airport","country":"Japan","latitude":31.87621,"longitude":131.44733},{"id":3776,"iata":"KMJ","name":"Kumamoto Airport","country":"Japan","latitude":32.834522,"longitude":130.85823},{"id":3783,"iata":"KMQ","name":"Komatsu Airport","country":"Japan","latitude":36.401653,"longitude":136.41336},{"id":3788,"iata":"KMV","name":"Kalaymyo Airport","country":"Myanmar","latitude":23.189707,"longitude":94.0522},{"id":3798,"iata":"KNG","name":"Kaimana Airport","country":"Indonesia","latitude":-3.640379,"longitude":133.69788},{"id":3799,"iata":"KNH","name":"Kinmen Airport","country":"Taiwan","latitude":24.42914,"longitude":118.359856},{"id":3812,"iata":"KNU","name":"Kanpur Airport","country":"India","latitude":26.40442,"longitude":80.4177},{"id":3819,"iata":"KOE","name":"El Tari Airport","country":"Indonesia","latitude":-10.168897,"longitude":123.66789},{"id":3824,"iata":"KOJ","name":"Kagoshima Airport","country":"Japan","latitude":31.802853,"longitude":130.71802},{"id":3830,"iata":"KOP","name":"Nakhon Phanom Airport","country":"Thailand","latitude":17.388943,"longitude":104.64458},{"id":3837,"iata":"KOW","name":"Ganzhou Huangjin Airport","country":"China","latitude":25.851667,"longitude":114.776665},{"id":3851,"iata":"KPO","name":"Pohang Airport","country":"South Korea","latitude":35.98466,"longitude":129.43391},{"id":3874,"iata":"KRL","name":"Korla Airport","country":"China","latitude":41.62118,"longitude":86.14133},{"id":3887,"iata":"KRY","name":"Karamay Airport","country":"China","latitude":45.468178,"longitude":84.95967},{"id":3902,"iata":"KSN","name":"Kostanay Airport","country":"Kazakhstan","latitude":53.220657,"longitude":63.553825},{"id":3905,"iata":"KSQ","name":"Karshi Airport","country":"Uzbekistan","latitude":38.811237,"longitude":65.774284},{"id":3918,"iata":"KTE","name":"Kerteh Airport","country":"Malaysia","latitude":4.5403724,"longitude":103.42894},{"id":3926,"iata":"KTM","name":"Tribhuvan International Airport","country":"Nepal","latitude":27.69809,"longitude":85.35922},{"id":3939,"iata":"KUA","name":"Sultan Haji Ahmad Shah Airport","country":"Malaysia","latitude":3.7807465,"longitude":103.214966},{"id":3941,"iata":"KUD","name":"Kudat Airport","country":"Malaysia","latitude":6.923572,"longitude":116.83679},{"id":3945,"iata":"KUH","name":"Kushiro Airport","country":"Japan","latitude":43.045162,"longitude":144.19455},{"id":3947,"iata":"KUL","name":"Kuala Lumpur International Airport","country":"Malaysia","latitude":2.7343836,"longitude":101.70541},{"id":3955,"iata":"KUT","name":"David the Builder Kutaisi International Airport","country":"Georgia","latitude":42.182068,"longitude":42.465603},{"id":3956,"iata":"KUU","name":"Bhuntar Airport","country":"India","latitude":31.875671,"longitude":77.150696},{"id":3957,"iata":"KUV","name":"Gunsan Airport","country":"South Korea","latitude":35.925922,"longitude":126.61566},{"id":3963,"iata":"KVD","name":"Ganja International Airport","country":"Azerbaijan","latitude":40.739487,"longitude":46.29976},{"id":3975,"iata":"KWE","name":"Guiyang Longdongbao International Airport","country":"China","latitude":26.540691,"longitude":106.80021},{"id":3980,"iata":"KWJ","name":"Gwangju Airport","country":"South Korea","latitude":35.139824,"longitude":126.81097},{"id":3982,"iata":"KWL","name":"Guilin Liangjiang International Airport","country":"China","latitude":25.21588,"longitude":110.047066},{"id":4008,"iata":"KYP","name":"Kyaukpyu Airport","country":"Myanmar","latitude":19.429054,"longitude":93.535934},{"id":4021,"iata":"KZO","name":"Kyzylorda Airport","country":"Kazakhstan","latitude":44.711773,"longitude":65.58784},{"id":4037,"iata":"LAO","name":"Laoag International Airport","country":"Philippines","latitude":18.182106,"longitude":120.531784},{"id":4050,"iata":"LBD","name":"Khujand Airport","country":"Tajikistan","latitude":40.215,"longitude":69.69667},{"id":4062,"iata":"LBP","name":"Long Banga Airport","country":"Malaysia","latitude":3.1833334,"longitude":115.45},{"id":4067,"iata":"LBU","name":"Labuan Airport","country":"Malaysia","latitude":5.2944374,"longitude":115.24925},{"id":4092,"iata":"LCX","name":"Longyan Guanzhishan Airport","country":"China","latitude":25.67902,"longitude":116.759125},{"id":4104,"iata":"LDN","name":"Lamidanda Airport","country":"Nepal","latitude":27.252626,"longitude":86.67224},{"id":4108,"iata":"LDU","name":"Lahad Datu Airport","country":"Malaysia","latitude":5.0289946,"longitude":118.32895},{"id":4160,"iata":"LGK","name":"Langkawi International Airport","country":"Malaysia","latitude":6.34206,"longitude":99.73152},{"id":4161,"iata":"LGL","name":"Long Lellang Airport","country":"Malaysia","latitude":3.4215603,"longitude":115.15262},{"id":4165,"iata":"LGP","name":"Legazpi International Airport","country":"Philippines","latitude":13.114046,"longitude":123.679115},{"id":4176,"iata":"LHE","name":"Allama Iqbal International Airport","country":"Pakistan","latitude":31.520542,"longitude":74.410515},{"id":4185,"iata":"LHW","name":"Lanzhou Zhongchuan International Airport","country":"China","latitude":36.515,"longitude":103.62},{"id":4205,"iata":"LIW","name":"Loikaw Airport","country":"Myanmar","latitude":19.689596,"longitude":97.21382},{"id":4210,"iata":"LJG","name":"Lijiang Sanyi Airport","country":"China","latitude":26.66667,"longitude":100.24812},{"id":4219,"iata":"LKH","name":"Long Akah Airport[2]","country":"Malaysia","latitude":3.3134663,"longitude":114.78593},{"id":4223,"iata":"LKO","name":"Chaudhary Charan Singh International Airport","country":"India","latitude":26.761732,"longitude":80.88566},{"id":4235,"iata":"LLF","name":"Yongzhou Lingling Airport","country":"China","latitude":26.341413,"longitude":111.61854},{"id":4260,"iata":"LMN","name":"Limbang Airport","country":"Malaysia","latitude":4.8100977,"longitude":115.007835},{"id":4279,"iata":"LNJ","name":"Lincang Airport","country":"China","latitude":23.741274,"longitude":100.02648},{"id":4331,"iata":"LPQ","name":"Luang Prabang International Airport","country":"Laos","latitude":19.904427,"longitude":102.16822},{"id":4333,"iata":"LPT","name":"Lampang Airport","country":"Thailand","latitude":18.277802,"longitude":99.505905},{"id":4363,"iata":"LSH","name":"Lashio Airport","country":"Myanmar","latitude":22.978498,"longitude":97.75242},{"id":4387,"iata":"LTI","name":"Altai Airport","country":"Mongolia","latitude":46.37433,"longitude":96.23275},{"id":4402,"iata":"LUA","name":"Tenzing-Hillary Airport","country":"Nepal","latitude":27.687542,"longitude":86.73171},{"id":4413,"iata":"LUM","name":"Dehong Mangshi Airport","country":"China","latitude":24.402954,"longitude":98.53154},{"id":4422,"iata":"LUV","name":"Karel Sadsuitubun Airport","country":"Indonesia","latitude":-5.7563653,"longitude":132.76021},{"id":4446,"iata":"LWN","name":"Shirak Airport","country":"Armenia","latitude":40.75111,"longitude":43.85427},{"id":4452,"iata":"LWY","name":"Lawas Airport","country":"Malaysia","latitude":4.8466306,"longitude":115.4067},{"id":4453,"iata":"LXA","name":"Lhasa Gonggar Airport","country":"China","latitude":29.290106,"longitude":90.90111},{"id":4454,"iata":"LXG","name":"Louang Namtha Airport","country":"Laos","latitude":20.954252,"longitude":101.40072},{"id":4460,"iata":"LYA","name":"Luoyang Beijiao Airport","country":"China","latitude":34.736,"longitude":112.3923},{"id":4464,"iata":"LYG","name":"Lianyungang Baitabu Airport","country":"China","latitude":34.564964,"longitude":118.88171},{"id":4466,"iata":"LYI","name":"Linyi Shubuling Airport","country":"China","latitude":35.048244,"longitude":118.413284},{"id":4470,"iata":"LYP","name":"Faisalabad International Airport","country":"Pakistan","latitude":31.363043,"longitude":72.98757},{"id":4478,"iata":"LZH","name":"Liuzhou Bailian Airport","country":"China","latitude":24.203135,"longitude":109.40402},{"id":4481,"iata":"LZN","name":"Matsu Nangan Airport","country":"Taiwan","latitude":26.157381,"longitude":119.9564},{"id":4482,"iata":"LZO","name":"Luzhou Lantian Airport","country":"China","latitude":0,"longitude":0},{"id":4486,"iata":"MAA","name":"Chennai International Airport","country":"India","latitude":12.994112,"longitude":80.17087},{"id":4516,"iata":"MBE","name":"Monbetsu Airport","country":"Japan","latitude":44.306587,"longitude":143.40695},{"id":4531,"iata":"MBT","name":"Moises R. Espinosa Airport","country":"Philippines","latitude":12.366758,"longitude":123.62703},{"id":4563,"iata":"MDC","name":"Sam Ratulangi International Airport","country":"Indonesia","latitude":1.5490187,"longitude":124.925514},{"id":4567,"iata":"MDG","name":"Mudanjiang Hailang Airport","country":"China","latitude":44.524166,"longitude":129.5689},{"id":4572,"iata":"MDL","name":"Mandalay International Airport","country":"Myanmar","latitude":21.705648,"longitude":95.97083},{"id":4604,"iata":"MES","name":"Soewondo Air Force Base","country":"Indonesia","latitude":0,"longitude":0},{"id":4610,"iata":"MEY","name":"Meghauli Airport","country":"Nepal","latitude":27.576616,"longitude":84.228},{"id":4622,"iata":"MFK","name":"Matsu Beigan Airport","country":"Taiwan","latitude":26.224361,"longitude":120.00102},{"id":4624,"iata":"MFM","name":"Macau International Airport","country":"Macau","latitude":22.157835,"longitude":113.576416},{"id":4662,"iata":"MGZ","name":"Myeik Airport","country":"Myanmar","latitude":12.44762,"longitude":98.61908},{"id":4692,"iata":"MIG","name":"Mianyang Nanjiao Airport","country":"China","latitude":31.43111,"longitude":104.73805},{"id":4715,"iata":"MJD","name":"Moenjodaro Airport","country":"Pakistan","latitude":27.331099,"longitude":68.13991},{"id":4746,"iata":"MKM","name":"Mukah Airport","country":"Malaysia","latitude":2.906695,"longitude":112.08086},{"id":4750,"iata":"MKQ","name":"Mopah Airport","country":"Indonesia","latitude":-8.518543,"longitude":140.41495},{"id":4756,"iata":"MKW","name":"Rendani Airport","country":"Indonesia","latitude":-0.893595,"longitude":134.05046},{"id":4763,"iata":"MLE","name":"Ibrahim Nasir International Airport","country":"Maldives","latitude":4.1887827,"longitude":73.52858},{"id":4765,"iata":"MLG","name":"Abdul Rachman Saleh Airport","country":"Indonesia","latitude":-7.937176,"longitude":112.71169},{"id":4786,"iata":"MMB","name":"Memanbetsu Airport","country":"Japan","latitude":43.884533,"longitude":144.15762},{"id":4808,"iata":"MMY","name":"Miyako Airport","country":"Japan","latitude":24.77943,"longitude":125.29747},{"id":4821,"iata":"MNL","name":"Ninoy Aquino International Airport / Villamor Air Base","country":"Philippines","latitude":14.516388,"longitude":121.01925},{"id":4830,"iata":"MNU","name":"Mawlamyaing Airport","country":"Myanmar","latitude":16.441492,"longitude":97.65764},{"id":4841,"iata":"MOF","name":"Frans Seda Airport","country":"Indonesia","latitude":-8.636935,"longitude":122.23756},{"id":4842,"iata":"MOG","name":"Monghsat Airport","country":"Myanmar","latitude":20.518448,"longitude":99.2568},{"id":4866,"iata":"MPH","name":"Godofredo P. Ramos Airport","country":"Philippines","latitude":11.925305,"longitude":121.95351},{"id":4943,"iata":"MSJ","name":"Misawa Air Base","country":"Japan","latitude":40.696453,"longitude":141.38777},{"id":5001,"iata":"MUR","name":"Marudi Airport","country":"Malaysia","latitude":4.178989,"longitude":114.32656},{"id":5005,"iata":"MUX","name":"Multan International Airport","country":"Pakistan","latitude":30.19616,"longitude":71.42382},{"id":5048,"iata":"MWQ","name":"Magway Airport","country":"Myanmar","latitude":20.153202,"longitude":94.96855},{"id":5076,"iata":"MXV","name":"Mörön Airport","country":"Mongolia","latitude":49.664223,"longitude":100.096},{"id":5080,"iata":"MXZ","name":"Meixian Airport","country":"China","latitude":24.263605,"longitude":116.10893},{"id":5085,"iata":"MYE","name":"Miyakejima Airport","country":"Japan","latitude":34.073708,"longitude":139.55846},{"id":5090,"iata":"MYJ","name":"Matsuyama Airport","country":"Japan","latitude":33.82905,"longitude":132.7041},{"id":5099,"iata":"MYT","name":"Myitkyina Airport","country":"Myanmar","latitude":25.381994,"longitude":97.35493},{"id":5104,"iata":"MYY","name":"Miri Airport","country":"Malaysia","latitude":4.321545,"longitude":113.98562},{"id":5112,"iata":"MZG","name":"Magong Airport","country":"Taiwan","latitude":23.56411,"longitude":119.62818},{"id":5126,"iata":"MZV","name":"Mulu Airport","country":"Malaysia","latitude":4.0492425,"longitude":114.81095},{"id":5136,"iata":"NAG","name":"Dr. Babasaheb Ambedkar International Airport","country":"India","latitude":21.09082,"longitude":79.05482},{"id":5139,"iata":"NAJ","name":"Nakhchivan International Airport","country":"Azerbaijan","latitude":39.189613,"longitude":45.457935},{"id":5144,"iata":"NAO","name":"Nanchong Gaoping Airport","country":"China","latitude":30.788216,"longitude":106.1659},{"id":5152,"iata":"NAW","name":"Narathiwat Airport","country":"Thailand","latitude":6.524384,"longitude":101.74593},{"id":5153,"iata":"NAY","name":"Beijing Nanyuan Airport","country":"China","latitude":39.7825,"longitude":116.38778},{"id":5166,"iata":"NBX","name":"Nabire Airport","country":"Indonesia","latitude":-3.3613482,"longitude":135.49612},{"id":5179,"iata":"NCU","name":"Nukus Airport","country":"Uzbekistan","latitude":42.481743,"longitude":59.617584},{"id":5187,"iata":"NDG","name":"Qiqihar Sanjiazi Airport","country":"China","latitude":47.253937,"longitude":123.92395},{"id":5215,"iata":"NGB","name":"Ningbo Lishe International Airport","country":"China","latitude":29.826666,"longitude":121.461945},{"id":5223,"iata":"NGO","name":"Chūbu Centrair International Airport","country":"Japan","latitude":34.859093,"longitude":136.8146},{"id":5227,"iata":"NGS","name":"Nagasaki Airport","country":"Japan","latitude":32.913643,"longitude":129.91849},{"id":5231,"iata":"NHA","name":"Nha Trang Air Base","country":"Vietnam","latitude":12.238791,"longitude":109.19675},{"id":5263,"iata":"NKG","name":"Nanjing Lukou International Airport","country":"China","latitude":31.73359,"longitude":118.871445},{"id":5292,"iata":"NMA","name":"Namangan Airport","country":"Uzbekistan","latitude":40.98348,"longitude":71.574715},{"id":5306,"iata":"NNG","name":"Nanning Wuxu International Airport","country":"China","latitude":22.609644,"longitude":108.17166},{"id":5312,"iata":"NNT","name":"Nan Nakhon Airport","country":"Thailand","latitude":18.802912,"longitude":100.78496},{"id":5315,"iata":"NNY","name":"Nanyang Jiangying Airport","country":"China","latitude":32.980835,"longitude":112.61528},{"id":5365,"iata":"NRT","name":"Narita International Airport","country":"Japan","latitude":35.771988,"longitude":140.39285},{"id":5376,"iata":"NST","name":"Nakhon Si Thammarat Airport","country":"Thailand","latitude":8.538631,"longitude":99.94154},{"id":5384,"iata":"NTG","name":"Nantong Xingdong Airport","country":"China","latitude":32.070835,"longitude":120.975555},{"id":5391,"iata":"NTQ","name":"Noto Airport","country":"Japan","latitude":37.29526,"longitude":136.95732},{"id":5443,"iata":"NYU","name":"Nyaung U Airport","country":"Myanmar","latitude":21.175524,"longitude":94.9287},{"id":5473,"iata":"OBO","name":"Tokachi–Obihiro Airport","country":"Japan","latitude":42.73221,"longitude":143.21288},{"id":5497,"iata":"ODN","name":"Long Seridan Airport","country":"Malaysia","latitude":3.977183,"longitude":115.06868},{"id":5502,"iata":"ODY","name":"Oudomsay Airport","country":"Laos","latitude":20.682714,"longitude":101.993645},{"id":5521,"iata":"OGN","name":"Yonaguni Airport","country":"Japan","latitude":24.465317,"longitude":122.980064},{"id":5541,"iata":"OIM","name":"Oshima Airport","country":"Japan","latitude":34.781956,"longitude":139.3615},{"id":5543,"iata":"OIT","name":"Oita Airport","country":"Japan","latitude":33.47641,"longitude":131.73267},{"id":5546,"iata":"OKA","name":"Naha Airport","country":"Japan","latitude":26.206404,"longitude":127.646545},{"id":5549,"iata":"OKD","name":"Okadama Airport","country":"Japan","latitude":43.110622,"longitude":141.38214},{"id":5554,"iata":"OKI","name":"Oki Airport","country":"Japan","latitude":36.177696,"longitude":133.33008},{"id":5555,"iata":"OKJ","name":"Okayama Airport","country":"Japan","latitude":34.76003,"longitude":133.85316},{"id":5616,"iata":"ONJ","name":"Odate–Noshiro Airport","country":"Japan","latitude":40.194973,"longitude":140.37277},{"id":5669,"iata":"OSA","name":"metropolitan area1","country":"Japan","latitude":0,"longitude":0},{"id":5684,"iata":"OSS","name":"Osh Airport","country":"Kyrgyzstan","latitude":40.608334,"longitude":72.793335},{"id":5753,"iata":"OZC","name":"Labo Airport","country":"Philippines","latitude":8.181012,"longitude":123.84485},{"id":5777,"iata":"PAT","name":"Lok Nayak Jayaprakash Airport","country":"India","latitude":25.594717,"longitude":85.0908},{"id":5786,"iata":"PBD","name":"Porbandar Airport","country":"India","latitude":21.647701,"longitude":69.66096},{"id":5790,"iata":"PBH","name":"Paro Airport","country":"Bhutan","latitude":27.405191,"longitude":89.42103},{"id":5801,"iata":"PBU","name":"Putao Airport","country":"Myanmar","latitude":27.329494,"longitude":97.42669},{"id":5829,"iata":"PDG","name":"Minangkabau International Airport","country":"Indonesia","latitude":-0.7887557,"longitude":100.28301},{"id":5853,"iata":"PEK","name":"Beijing Capital International Airport","country":"China","latitude":40.079857,"longitude":116.60311},{"id":5856,"iata":"PEN","name":"Penang International Airport","country":"Malaysia","latitude":5.2934294,"longitude":100.271515},{"id":5864,"iata":"PEW","name":"Bacha Khan International Airport","country":"Pakistan","latitude":33.98982,"longitude":71.51921},{"id":5882,"iata":"PGK","name":"Depati Amir Airport","country":"Indonesia","latitude":-2.1571934,"longitude":106.14113},{"id":5908,"iata":"PHS","name":"Phitsanulok Airport","country":"Thailand","latitude":16.771635,"longitude":100.281456},{"id":5917,"iata":"PIF","name":"Pingtung South Airport","country":"Taiwan","latitude":22.672615,"longitude":120.460785},{"id":5937,"iata":"PJG","name":"Panjgur Airport","country":"Pakistan","latitude":26.955217,"longitude":64.13582},{"id":5945,"iata":"PKG","name":"Pangkor Airport","country":"Malaysia","latitude":4.2432737,"longitude":100.55246},{"id":5948,"iata":"PKK","name":"Pakokku Airport","country":"Myanmar","latitude":21.175524,"longitude":94.9287},{"id":5953,"iata":"PKR","name":"Pokhara Airport","country":"Nepal","latitude":28.19939,"longitude":83.97841},{"id":5955,"iata":"PKU","name":"Sultan Syarif Kasim II International Airport","country":"Indonesia","latitude":0.4644616,"longitude":101.44816},{"id":5958,"iata":"PKY","name":"Tjilik Riwut Airport","country":"Indonesia","latitude":-2.2240243,"longitude":113.94559},{"id":5959,"iata":"PKZ","name":"Pakse International Airport","country":"Laos","latitude":15.135927,"longitude":105.779564},{"id":5970,"iata":"PLM","name":"Sultan Mahmud Badaruddin II International Airport","country":"Indonesia","latitude":-2.8966715,"longitude":104.6992},{"id":5980,"iata":"PLW","name":"Mutiara Airport","country":"Indonesia","latitude":-0.9186115,"longitude":119.90645},{"id":5981,"iata":"PLX","name":"Semey Airport","country":"Kazakhstan","latitude":50.353333,"longitude":80.23337},{"id":6013,"iata":"PNH","name":"Phnom Penh International Airport","country":"Cambodia","latitude":11.552743,"longitude":104.844475},{"id":6016,"iata":"PNK","name":"Supadio Airport","country":"Indonesia","latitude":-0.1467338,"longitude":109.40434},{"id":6020,"iata":"PNQ","name":"Pune Airport","country":"India","latitude":18.579344,"longitude":73.90892},{"id":6062,"iata":"PPK","name":"Petropavl Airport","country":"Kazakhstan","latitude":54.77853,"longitude":69.18051},{"id":6063,"iata":"PPL","name":"Phaplu Airport","country":"Nepal","latitude":27.516357,"longitude":86.58443},{"id":6069,"iata":"PPS","name":"Puerto Princesa International Airport","country":"Philippines","latitude":9.745656,"longitude":118.750435},{"id":6077,"iata":"PQC","name":"Phu Quoc International Airport","country":"Vietnam","latitude":10.163415,"longitude":103.99803},{"id":6168,"iata":"PUS","name":"Gimhae International Airport","country":"South Korea","latitude":35.17322,"longitude":128.94646},{"id":6181,"iata":"PVG","name":"Shanghai Pudong International Airport","country":"China","latitude":31.144344,"longitude":121.80827},{"id":6200,"iata":"PWQ","name":"Pavlodar Airport","country":"Kazakhstan","latitude":52.19236,"longitude":77.06302},{"id":6209,"iata":"PXU","name":"Pleiku Airport","country":"Vietnam","latitude":14.006738,"longitude":108.006134},{"id":6229,"iata":"PZI","name":"Panzhihua Bao'anying Airport","country":"China","latitude":26.533846,"longitude":101.79534},{"id":6264,"iata":"RAJ","name":"Rajkot Airport","country":"India","latitude":22.308792,"longitude":70.78217},{"id":6324,"iata":"RDN","name":"Redang Airport","country":"Malaysia","latitude":5.7650676,"longitude":103.005005},{"id":6344,"iata":"REP","name":"Siem Reap International Airport","country":"Cambodia","latitude":13.411532,"longitude":103.81392},{"id":6368,"iata":"RGN","name":"Yangon International Airport","country":"Myanmar","latitude":16.902773,"longitude":96.13526},{"id":6399,"iata":"RIS","name":"Rishiri Airport","country":"Japan","latitude":45.24392,"longitude":141.18353},{"id":6405,"iata":"RJA","name":"Rajahmundry Airport","country":"India","latitude":17.10729,"longitude":81.81778},{"id":6445,"iata":"RMQ","name":"Taichung Airport","country":"Taiwan","latitude":24.263996,"longitude":120.623856},{"id":6476,"iata":"ROI","name":"Roi Et Airport","country":"Thailand","latitude":16.11697,"longitude":103.77528},{"id":6497,"iata":"RPR","name":"Swami Vivekananda Airport","country":"India","latitude":21.18597,"longitude":81.740425},{"id":6523,"iata":"RSU","name":"Yeosu/Suncheon Airport","country":"South Korea","latitude":34.840153,"longitude":127.61404},{"id":6545,"iata":"RUK","name":"Chaurjahari Airport","country":"Nepal","latitude":28.626747,"longitude":82.193565},{"id":6546,"iata":"RUM","name":"Rumjatar Airport","country":"Nepal","latitude":27.30247,"longitude":86.55055},{"id":6574,"iata":"RXS","name":"Roxas Airport","country":"Philippines","latitude":11.601075,"longitude":122.748405},{"id":6577,"iata":"RYK","name":"Shaikh Zayed International Airport","country":"Pakistan","latitude":28.39161,"longitude":70.28706},{"id":6586,"iata":"RZS","name":"Sawan Airport","country":"Pakistan","latitude":26.966324,"longitude":68.880104},{"id":6633,"iata":"SBW","name":"Sibu Airport","country":"Malaysia","latitude":2.2564404,"longitude":111.9867},{"id":6650,"iata":"SCO","name":"Aktau Airport","country":"Kazakhstan","latitude":43.856808,"longitude":51.086945},{"id":6669,"iata":"SDJ","name":"Sendai Airport","country":"Japan","latitude":38.13972,"longitude":140.91695},{"id":6670,"iata":"SDK","name":"Sandakan Airport","country":"Malaysia","latitude":5.8974776,"longitude":118.06163},{"id":6678,"iata":"SDT","name":"Saidu Sharif Airport","country":"Pakistan","latitude":34.81333,"longitude":72.35139},{"id":6692,"iata":"SEL","name":"metropolitan area3","country":"South Korea","latitude":0,"longitude":0},{"id":6738,"iata":"SGN","name":"Tan Son Nhat International Airport","country":"Vietnam","latitude":10.818463,"longitude":106.65882},{"id":6750,"iata":"SHA","name":"Shanghai Hongqiao International Airport","country":"China","latitude":31.19221,"longitude":121.3343},{"id":6751,"iata":"SHB","name":"Nakashibetsu Airport","country":"Japan","latitude":43.57327,"longitude":144.95674},{"id":6754,"iata":"SHE","name":"Shenyang Taoxian International Airport","country":"China","latitude":41.635265,"longitude":123.49652},{"id":6761,"iata":"SHL","name":"Shillong Airport","country":"India","latitude":25.70621,"longitude":91.97508},{"id":6762,"iata":"SHM","name":"Nanki–Shirahama Airport","country":"Japan","latitude":33.66234,"longitude":135.36058},{"id":6775,"iata":"SIA","name":"Xi'an Xiguan Airport","country":"China","latitude":34.341576,"longitude":108.93977},{"id":6780,"iata":"SIF","name":"Simara Airport","country":"Nepal","latitude":27.16341,"longitude":84.980225},{"id":6788,"iata":"SIN","name":"Singapore Changi Airport","country":"Singapore","latitude":1.3644202,"longitude":103.99153},{"id":6809,"iata":"SJI","name":"San Jose Airport","country":"Philippines","latitude":37.36395,"longitude":-121.92894},{"id":6822,"iata":"SJW","name":"Shijiazhuang Zhengding International Airport","country":"China","latitude":38.280834,"longitude":114.69666},{"id":6829,"iata":"SKD","name":"Samarkand International Airport","country":"Uzbekistan","latitude":39.69633,"longitude":66.99087},{"id":6833,"iata":"SKH","name":"Surkhet Airport","country":"Nepal","latitude":28.584616,"longitude":81.63569},{"id":6844,"iata":"SKT","name":"Sialkot International Airport","country":"Pakistan","latitude":32.53367,"longitude":74.36315},{"id":6850,"iata":"SKZ","name":"Sukkur Airport","country":"Pakistan","latitude":27.722288,"longitude":68.79606},{"id":6872,"iata":"SLV","name":"Shimla Airport","country":"India","latitude":31.08422,"longitude":77.066154},{"id":6915,"iata":"SNO","name":"Sakon Nakhon Airport","country":"Thailand","latitude":17.19715,"longitude":104.11593},{"id":6923,"iata":"SNW","name":"Thandwe Airport","country":"Myanmar","latitude":18.457895,"longitude":94.29883},{"id":6928,"iata":"SOC","name":"Adisumarmo International Airport","country":"Indonesia","latitude":-7.516046,"longitude":110.75548},{"id":6940,"iata":"SOQ","name":"Dominique Edward Osok Airport","country":"Indonesia","latitude":-0.8903221,"longitude":131.29063},{"id":6958,"iata":"SPK","name":"metropolitan area5","country":"Japan","latitude":0,"longitude":0},{"id":7001,"iata":"SRG","name":"Achmad Yani International Airport","country":"Indonesia","latitude":-6.9655857,"longitude":110.374916},{"id":7062,"iata":"STV","name":"Surat Airport","country":"India","latitude":21.12053,"longitude":72.74309},{"id":7068,"iata":"SUB","name":"Juanda International Airport","country":"Indonesia","latitude":-7.3788853,"longitude":112.78729},{"id":7072,"iata":"SUG","name":"Surigao Airport","country":"Philippines","latitude":9.760337,"longitude":125.48128},{"id":7077,"iata":"SUL","name":"Sui Airport","country":"Pakistan","latitude":28.645142,"longitude":69.17692},{"id":7116,"iata":"SWA","name":"Jieyang Chaoshan International Airport","country":"China","latitude":23.547085,"longitude":116.51441},{"id":7154,"iata":"SXR","name":"Sheikh ul Alam International Airport","country":"India","latitude":34.002174,"longitude":74.762405},{"id":7173,"iata":"SYM","name":"Pu'er Simao Airport","country":"China","latitude":22.793524,"longitude":100.96289},